,lat,lon,place_name,total_facility_available_name,large_range_category
43933,37.447970700000006,126.885065,시흥빌딩 화장실,객실 및 침실,화장실
29466,37.48108483146283,126.949208429582,손승환내과,객실 및 침실,일반숙박시설
22231,37.553183425256,126.85139433767156,드림텔호텔,객실 및 침실,일반숙박시설
33532,37.60890914248347,127.03751435901276,월곡종합사회복지관,객실 및 침실,복지시설
29486,37.51574040501664,127.11388252077411,솔 모텔,객실 및 침실,일반숙박시설
23906,37.56887083116287,126.9884814125715,몽호텔,객실 및 침실,일반숙박시설
15302,37.5297699998206,126.96474274881271,CGV용산 11,객실 및 침실,영화관/공연장
19970,37.55486445119392,126.85264494964252,노스탈자호텔,객실 및 침실,일반숙박시설
33451,37.48628534229936,126.94119962866276,원익빌딩,객실 및 침실,종합병원
17576,37.57572251653142,126.99681217433556,고궁호텔,객실 및 침실,일반숙박시설
33595,37.564483681788396,126.98018321530917,웨스틴조선호텔 서울점,객실 및 침실,일반숙박시설
21177,37.583456691546466,126.99984149795456,대학로CGV,객실 및 침실,영화관/공연장
23898,37.51954527011404,126.91005221595884,몰디브모텔,객실 및 침실,일반숙박시설
15291,37.5635262478331,126.89843632998341,CGV상암14,객실 및 침실,영화관/공연장
23086,37.479190930114996,126.8887823521484,마리모텔,객실 및 침실,일반숙박시설
16748,37.49471831292079,127.0834994877244,강남장애인복지관,객실 및 침실,복지시설
29563,37.605846967229745,127.10646373713423,송곡여자고등학교 ,객실 및 침실,학교
15265,37.50115888382457,126.88277403171672,CGV구로14,객실 및 침실,영화관/공연장
27408,37.55584906407182,127.12820344143765,서울선사초등학교,객실 및 침실,학교
26059,37.5879487800829,127.05513485090599,삼육의료원건강검진센터,객실 및 침실,종합병원
21154,37.50658339307788,127.0653262973692,대치동 KT&G,객실 및 침실,영화관/공연장
29512,37.53600740310847,127.11587298628555,솔바람복지센터,객실 및 침실,복지시설
18201,37.54296419099017,127.09443419719764,교육관,객실 및 침실,복지시설
25956,37.49849836419981,126.94661824611583,삼성애니아트,객실 및 침실,복지시설
42725,37.512107,127.082406,올림픽공원-제1체육관(체조) 화장실,객실 및 침실,화장실
40330,37.53587,127.113731,송파나루(놀이마당) 화장실 화장실,객실 및 침실,화장실
40345,37.508531,127.07691000000001,잠실공원 화장실 화장실,객실 및 침실,화장실
23123,37.54970612586629,126.84619567115324,마음자리,객실 및 침실,복지시설
19955,37.57667716184426,126.9896711318745,노블호텔,객실 및 침실,일반숙박시설
15371,37.474683916185064,127.05112639279658,EBM 통합의학,객실 및 침실,종합병원
16649,37.48284587857757,127.07937075395105,강남구 직업재활센터,객실 및 침실,복지시설
27466,37.631250648442794,127.02029218436115,서울수유초등학교,객실 및 침실,학교
40367,37.508540999999994,127.076715,방이공원 화장실 화장실,객실 및 침실,화장실
20616,37.47167750229508,127.0525939550434,능인종합사회복지관,객실 및 침실,복지시설
16686,37.502391813696256,127.00586275297856,강남성모병원 ,객실 및 침실,종합병원
40385,37.520247,127.115553,송이공원 화장실 화장실,객실 및 침실,화장실
23567,37.47414203178401,126.98100296905069,메트로21,객실 및 침실,일반숙박시설
33669,37.56366945924804,127.03432246016622,윈저모텔,객실 및 침실,일반숙박시설
33659,37.55390086467766,126.93555589773148,위드호텔,객실 및 침실,일반숙박시설
33654,37.60680802070691,126.90935833499806,위드 자립생활센터,객실 및 침실,복지시설
15348,37.55829388925655,126.94204851146051,Ditto HOTEL,객실 및 침실,일반숙박시설
40410,37.494547,127.120977,가락공원1(관리동) 화장실 화장실,객실 및 침실,화장실
27448,37.603470276656665,126.96097087510286,서울세검정초등학교,객실 및 침실,학교
21202,37.582058349057284,127.00041662615543,대학로스타시티빌딩,객실 및 침실,영화관/공연장
40419,37.522698999999996,127.126848,가락공원2 (족구장) 화장실 화장실,객실 및 침실,화장실
33676,37.46525449890565,126.89717227494756,윈저텔,객실 및 침실,일반숙박시설
29376,37.5039344562304,127.0024111972472,센트럴시티,객실 및 침실,영화관/공연장
33306,37.65745218883934,127.01391214662264,우이새길요양병원,객실 및 침실,종합병원
16778,37.49198231160321,127.07346872881212,강남종합사회복지관,객실 및 침실,복지시설
29775,37.47701166097485,126.98701676710579,수영빌딩,객실 및 침실,종합병원
26196,37.668091017040965,127.07832536015448,상계종합복지관,객실 및 침실,복지시설
27323,37.588770331507455,127.04717356048012,서울삼육초등학교,객실 및 침실,학교
23027,37.5057369080659,127.02744216509888,리츠칼튼 서울호텔,객실 및 침실,일반숙박시설
40891,37.492385,127.127344,현대드림밸리빌딩 화장실,객실 및 침실,화장실
18644,37.59336500510857,127.09551239550972,구세군자활주거복지센터,객실 및 침실,복지시설
16872,37.5351413199334,127.1461259743747,강동미르사랑 데이케어센터,객실 및 침실,복지시설
32874,37.62542245839128,127.0857887210488,온곡중학교,객실 및 침실,학교
27310,37.62329377425496,127.01614864583084,서울삼양초등학교,객실 및 침실,학교
32927,37.52034113915062,127.11551844445054,올림픽공원,객실 및 침실,영화관/공연장
23614,37.55928048815075,127.0128571521314,명덕빌딩,객실 및 침실,종합병원
40925,37.53595,127.116069,동성빌딩 화장실,객실 및 침실,화장실
32850,37.48324909992364,126.90096467069904,오아시스,객실 및 침실,일반숙박시설
40942,37.527741999999996,127.113877,세기빌딩 화장실,객실 및 침실,화장실
27297,37.58714287515434,127.01267173118393,서울삼선초등학교,객실 및 침실,학교
32815,37.55587671427213,126.93715673995376,오렌지카운티,객실 및 침실,일반숙박시설
18626,37.6256799328332,127.0133941983791,구세군강북사회종합복지관,객실 및 침실,복지시설
17502,37.5421911416662,127.07131374250031,경영관,객실 및 침실,학교
23617,37.563849851243965,126.98322129724508,명동센트럴빌딩,객실 및 침실,일반숙박시설
16894,37.5381321156947,127.12794228262275,강동미즈문화센터,객실 및 침실,종합병원
26226,37.47372781474297,126.89741842168924,상금복지관,객실 및 침실,복지시설
15252,37.5284437241851,127.12535988866115,CGV,객실 및 침실,영화관/공연장
40865,37.4926707943,126.966637299,학수(현충) 화장실,객실 및 침실,화장실
32942,37.51473337679194,127.10780914943048,와우호텔,객실 및 침실,일반숙박시설
22280,37.565385474725474,126.84225618100642,"등촌1,2단지 복지관",객실 및 침실,복지시설
26102,37.502185731700365,126.88247386119151,삼전솔하임,객실 및 침실,종합병원
27384,37.523451293072384,126.86723651941193,서울서정초등학교,객실 및 침실,학교
33137,37.53342351659932,126.95186116423416,용산문화원,객실 및 침실,영화관/공연장
23047,37.654772107802266,127.0574597669852,릿츠호텔,객실 및 침실,일반숙박시설
42608,37.508691,127.09774099999998,잠실7동주민센터 화장실,객실 및 침실,화장실
23860,37.530718761133116,126.87550066223238,목동청소년수련관,객실 및 침실,영화관/공연장
26130,37.48132286429883,126.94959719986628,삼호빌딩,객실 및 침실,종합병원
33070,37.58700426419113,127.09518724840542,용마문화복지센터,객실 및 침실,복지시설
32940,37.563647590223326,127.03515549730663,올모텔,객실 및 침실,일반숙박시설
27358,37.66767303864923,127.059718447124,서울상원초등학교,객실 및 침실,학교
16832,37.55316900838627,127.1569620924066,강동경희대학교병원,객실 및 침실,종합병원
22303,37.56188161033503,126.80991135278586,등촌4종합사회복지관,객실 및 침실,복지시설
40812,37.493745000000004,127.144305,로데오 상점가-취약지역 화장실,객실 및 침실,화장실
21123,37.48393815160635,127.07899653234749,대청사회복지관(증축),객실 및 침실,복지시설
32979,37.57411669125108,127.02225543550968,와이키키모텔,객실 및 침실,일반숙박시설
23840,37.5235867227291,126.87577496500566,목동자생한방병원,객실 및 침실,종합병원
32971,37.53035223785693,126.8458688621669,와이커키호텔(쇼호텔),객실 및 침실,일반숙박시설
27336,37.6596254560325,127.06649374513405,서울상계초등학교,객실 및 침실,학교
29745,37.487979084583344,127.10563137733976,수서종합사회복지관,객실 및 침실,복지시설
42593,37.506786,127.098228,잠실6동주민센터 화장실,객실 및 침실,화장실
40959,37.491772999999995,127.15561000000001,삼성디지탈프라자 화장실,객실 및 침실,화장실
33793,37.55359727019975,126.91687849377425,유양호텔,객실 및 침실,일반숙박시설
40321,37.512572,127.10819,KT가락지점 화장실,객실 및 침실,화장실
40038,37.51077,127.116514,송파도서관(오금동 51) 화장실,객실 및 침실,화장실
19888,37.6551928314844,127.05935034488756,노블레스관광호텔,객실 및 침실,일반숙박시설
22091,37.64451397788511,127.07292525022612,동천의집,객실 및 침실,복지시설
40056,37.507065000000004,127.07988600000002,청소년 수련관 화장실,객실 및 침실,화장실
34369,37.535365060450786,126.9982304434218,이태원 IP호텔,객실 및 침실,일반숙박시설
18844,37.55681628993303,126.94212208803258,굿타임호텔,객실 및 침실,일반숙박시설
18127,37.54651303783713,127.08644506456685,광진타워빌딩,객실 및 침실,종합병원
23549,37.547895182680065,126.81950678330452,메이필드호텔,객실 및 침실,일반숙박시설
34357,37.55329404008532,126.85051591880837,이지호텔,객실 및 침실,일반숙박시설
25573,37.49691982086978,127.15258324978217,사랑나눔주간보호,객실 및 침실,복지시설
29069,37.53421027177274,126.95459415112178,성심여자고등학교,객실 및 침실,학교
40086,37.538261999999996,127.12283799999999,송파우체국 화장실,객실 및 침실,화장실
24004,37.596519595627726,127.08948324025404,미라지,객실 및 침실,일반숙박시설
23178,37.5559950297108,126.94304622446259,마포복지종합지원센터,객실 및 침실,복지시설
30826,37.5560716151265,126.93769528588106,신촌모텔(D모텔),객실 및 침실,일반숙박시설
40101,37.512456,127.10506399999998,송파나루(더다이닝) 화장실 화장실,객실 및 침실,화장실
19892,37.60917557132228,126.93019885529215,노블레스모텔,객실 및 침실,일반숙박시설
20317,37.574541425246814,126.81613246163393,뇌성마비복지관,객실 및 침실,복지시설
40110,37.511477,127.08148,대한소방공제회빌딩 화장실,객실 및 침실,화장실
29169,37.48180191564522,126.89056486396768,성프란치스꼬장애인종합복지관,객실 및 침실,복지시설
34335,37.55643657115681,126.93952841440263,이젠호텔,객실 및 침실,일반숙박시설
25640,37.4926011109021,126.96260721393257,사랑손주간보호센터,객실 및 침실,복지시설
34423,37.5611486017934,126.9427751922987,이화여자대학교사범대학 부속초등학교,객실 및 침실,학교
34436,37.56444557044906,126.97030426691003,이화학원,객실 및 침실,학교
34673,37.65904586564025,127.05069043467054,자운고등학교,객실 및 침실,학교
42992,37.4793528,126.88521670000002,농협관악지점 화장실,객실 및 침실,화장실
34645,37.53289759581719,127.07523308742977,자양 3세대 종합복지센터,객실 및 침실,복지시설
18114,37.53651137862957,127.09648076709179,광진종합문화센터,객실 및 침실,영화관/공연장
15565,37.48679662027596,127.01295778934912,IMT호텔,객실 및 침실,일반숙박시설
34603,37.574962075235355,127.0032557149793,임스하우스,객실 및 침실,일반숙박시설
15563,37.501033796350825,127.03964976707266,IMI호텔,객실 및 침실,일반숙박시설
39955,37.497156,127.14693700000001,숯내공원 화장실 화장실,객실 및 침실,화장실
34564,37.52952102228533,126.84687520309143,일솔레MT(무림파크),객실 및 침실,일반숙박시설
16529,37.58490178849815,127.004768739433,가톨릭대학교 성신교정,객실 및 침실,학교
24224,37.54578286645106,127.12507660030292,바고관광호텔,객실 및 침실,일반숙박시설
19875,37.561712605595865,127.06749771162872,노블레스,객실 및 침실,일반숙박시설
39987,37.502416,127.12611499999998,올림픽공원-구립SOMA미술관 화장실,객실 및 침실,화장실
27551,37.64244347787962,127.05658008579952,서울시립 뇌성마비종합복지관,객실 및 침실,복지시설
34486,37.6438657673206,127.0099211930666,인수중학교,객실 및 침실,학교
40002,37.515394,127.10744199999999,올림픽공원-만남의광장(A2동) 화장실,객실 및 침실,화장실
25544,37.482847476262585,126.97149888669121,사당종합사회복지관,객실 및 침실,복지시설
18867,37.49913350853486,126.82956240498748,궁동종합사회복지관,객실 및 침실,복지시설
40017,37.493833,127.12048200000001,올림픽공원-프라자A동 화장실,객실 및 침실,화장실
29040,37.54542892060686,127.04694707758443,성수문화복지회관,객실 및 침실,복지시설
39984,37.493312,127.12503600000001,올림픽공원-공급실 뒤(옥외화장실) 화장실,객실 및 침실,화장실
25818,37.6161473444376,127.01457044732136,삼각산중학교,객실 및 침실,학교
40124,37.512144,127.08300700000001,한국조세연구원빌딩 화장실,객실 및 침실,화장실
15482,37.53024664616337,127.12102303957626,GMF빌딩,객실 및 침실,종합병원
18152,37.54796965087783,126.85235072276943,교남소망의집,객실 및 침실,복지시설
25732,37.53384107271477,126.95062992513256,사회복지법인 한벗재단,객실 및 침실,복지시설
40249,37.504129999999996,127.107677,한국체육대학교 화장실,객실 및 침실,화장실
16605,37.56791739474362,126.9618904430341,감리교신학대학교,객실 및 침실,학교
29304,37.65451978864657,127.0575502313858,세인트모텔,객실 및 침실,일반숙박시설
40265,37.516312,127.10041299999999,아시아선수촌A동상가 화장실,객실 및 침실,화장실
33914,37.52565466934934,127.03373034442323,윤당빌딩,객실 및 침실,영화관/공연장
25758,37.54113965868448,127.14508310682376,사회복지시설,객실 및 침실,복지시설
40272,37.489398,127.122831,잠실3동성당 화장실,객실 및 침실,화장실
40235,37.497659999999996,127.125723,한국육영학교(특수) 화장실,객실 및 침실,화장실
29332,37.56144296564929,126.98794833515,세종호텔,객실 및 침실,일반숙박시설
17610,37.58870342243334,127.03169810479416,고려대라이시움,객실 및 침실,학교
33872,37.595669190820864,127.09395270849377,유토피아,객실 및 침실,일반숙박시설
40288,37.511469,127.08168899999998,풍납백제문화공원 화장실,객실 및 침실,화장실
23950,37.51597425070758,127.1105256625243,문모텔,객실 및 침실,일반숙박시설
16626,37.477704626550576,126.91785350660135,갑을복지재단 재활센터,객실 및 침실,복지시설
33867,37.59257350035878,127.01708860457896,유타몰,객실 및 침실,영화관/공연장
40298,37.481813,127.13246299999999,송파관광정보센터 화장실,객실 및 침실,화장실
25802,37.52963018958326,126.84768502105764,산후조리원웰빙센타,객실 및 침실,종합병원
40305,37.52467100000001,127.12196399999999,올림픽공원-테니스장 화장실,객실 및 침실,화장실
33902,37.53527090261717,127.08318714986248,윤강,객실 및 침실,종합병원
34246,37.486893885852716,127.01334676647123,이사벨모텔,객실 및 침실,일반숙박시설
15430,37.57312329979733,126.98633448373072,FIRASER SUITES,객실 및 침실,일반숙박시설
34046,37.47115581543971,126.8989096233718,은하장여관,객실 및 침실,일반숙박시설
40132,37.506762,127.105286,국민연금본부회관 화장실,객실 및 침실,화장실
29198,37.53433070123847,126.95867169533994,세검정모텔,객실 및 침실,일반숙박시설
40140,37.501287,127.12703799999998,경찰병원 화장실,객실 및 침실,화장실
40142,37.50137,127.108678,강동송파교육지원청 화장실,객실 및 침실,화장실
18813,37.53408430699921,127.0676312012205,군자동극장,객실 및 침실,영화관/공연장
22119,37.61982824130036,127.05759144242985,동해문화예술관,객실 및 침실,영화관/공연장
40156,37.495107,127.122426,송파구  공영차고지 화장실,객실 및 침실,화장실
25669,37.50050421510755,127.02590222082449,사랑의복지관,객실 및 침실,복지시설
40159,37.5073,127.11663600000001,시설관리공단 화장실,객실 및 침실,화장실
40220,37.504757,127.08773799999999,서울초이스병원(임정애 메이저) 화장실,객실 및 침실,화장실
40172,37.49061,127.157521,마천119안전센터 화장실,객실 및 침실,화장실
40187,37.508236,127.10388700000001,거여119안전센터 화장실,객실 및 침실,화장실
25686,37.547005120265815,127.14364149310327,사랑플러스빌딩,객실 및 침실,종합병원
34096,37.63655849704024,127.0695910964754,을지병원,객실 및 침실,종합병원
17629,37.48003154933968,126.90643195129049,고려수요양병원 금천점,객실 및 침실,종합병원
16583,37.5457743450545,126.97482444506555,갈월동 종합사회복지관,객실 및 침실,복지시설
40202,37.492979,127.15016200000001,잠실119안전센터 화장실,객실 및 침실,화장실
27497,37.60381835802252,127.01329062070862,서울 숭덕초등학교,객실 및 침실,학교
19924,37.50139543076221,127.03579126882856,노블레스 호텔(구 베니스모텔),객실 및 침실,일반숙박시설
40218,37.506991,127.089909,가락119안전센터 화장실,객실 및 침실,화장실
27507,37.6510238921781,127.02794427819036,서울숭미초등학교 교무실,객실 및 침실,학교
19866,37.506280656206656,127.02935147679716,노보텔 엠베스더 강남,객실 및 침실,일반숙박시설
22337,37.559281293278154,126.84571422080973,등촌동 병원,객실 및 침실,종합병원
20036,37.65023585990375,127.08026925498872,노원문화예술회관,객실 및 침실,영화관/공연장
22571,37.541438133414665,126.97214193351007,레인보우호텔,객실 및 침실,일반숙박시설
30329,37.570695972747174,126.913798664514,시립서대문농아인복지관,객실 및 침실,복지시설
31512,37.51598929074161,127.1136657207006,아테네,객실 및 침실,일반숙박시설
31502,37.566496338001926,127.00267128571907,아카시아호텔,객실 및 침실,일반숙박시설
18331,37.48682257702298,126.89082890797512,구로종합사회복지관,객실 및 침실,복지시설
41670,37.512386,127.099356,진양주유소 화장실,객실 및 침실,화장실
23746,37.519559555079546,126.90988025778273,모텔CF,객실 및 침실,일반숙박시설
22890,37.515315497476045,127.1096876572228,루이체,객실 및 침실,일반숙박시설
26753,37.5328698484637,126.88569771419348,서울경인초등학교,객실 및 침실,학교
31528,37.55840541474453,126.92853499410305,아트레온,객실 및 침실,영화관/공연장
22593,37.51770451508866,126.9112353596125,렉서스모텔,객실 및 침실,일반숙박시설
30364,37.60014299407861,126.91740200235802,시안모텔,객실 및 침실,일반숙박시설
22608,37.51436993508075,127.02053196324695,렉스관광호텔,객실 및 침실,일반숙박시설
20905,37.50992549768564,126.93042710651699,대방종합사회복지관,객실 및 침실,복지시설
26777,37.627549240998505,127.07450822196849,서울공연초등학교,객실 및 침실,학교
31355,37.575519608158665,126.98367602230213,아비숑 모텔,객실 및 침실,일반숙박시설
31353,37.57221541756576,126.98946346243609,아비숑,객실 및 침실,일반숙박시설
30402,37.49435977566779,126.84104871300134,시티월드,객실 및 침실,종합병원
41737,37.517821999999995,127.10181899999999,대성주유소 화장실,객실 및 침실,화장실
31345,37.53948609572682,127.1256318272838,아비송모텔,객실 및 침실,일반숙박시설
31408,37.56148111491171,126.97768041407629,아이린호텔,객실 및 침실,일반숙박시설
31344,37.56279031710285,127.03352071086559,아모렉스 관광호텔,객실 및 침실,일반숙박시설
31536,37.486955204630796,127.0128944975659,아트호텔,객실 및 침실,일반숙박시설
30292,37.609298609165,127.09490307049442,시립대종합사회복지관,객실 및 침실,복지시설
31761,37.5544297915077,127.01003607699649,약수JK빌딩,객실 및 침실,종합병원
20739,37.5152374951721,127.1082939963578,닷컴,객실 및 침실,일반숙박시설
17126,37.64583830000001,127.00623440000004,강북청소년수련관,객실 및 침실,수련시설
22542,37.53029008470089,126.92196830132187,랙싱턴호텔,객실 및 침실,일반숙박시설
26648,37.55947159082256,126.95703708357377,서대문장애인종합복지관(북아현동주민센터),객실 및 침실,복지시설
31699,37.5311762106343,127.03301328155595,압구정고등학교,객실 및 침실,학교
30238,37.55109644167493,127.07159835340424,시립광진노인종합복지관 A동,객실 및 침실,복지시설
41566,37.50763,127.109816,인광주유소 화장실,객실 및 침실,화장실
31678,37.52508966110562,127.03072089909469,압구정CGV,객실 및 침실,영화관/공연장
41638,37.498954,127.117173,완불주유소 화장실,객실 및 침실,화장실
27081,37.56438719118553,126.98586522226059,서울로얄호텔,객실 및 침실,영화관/공연장
18475,37.53368613841085,126.95072053962977,구립용산장애인복지관,객실 및 침실,복지시설
42275,37.516964,127.12333500000001,거여1동주민센터 화장실,객실 및 침실,화장실
31611,37.571289255495024,126.99016994422348,알리앙스,객실 및 침실,일반숙박시설
30261,37.52128419039926,126.91243020912836,시립노숙인복지시설 보현의집,객실 및 침실,복지시설
26680,37.527019554544815,126.89633636841069,서림장모텔,객실 및 침실,일반숙박시설
22560,37.50687183294708,127.10099375060535,레이크관광호텔,객실 및 침실,일반숙박시설
31588,37.516824834539435,126.90618242477595,안세빌딩,객실 및 침실,종합병원
23756,37.47872367116141,126.89013521229192,모텔리치,객실 및 침실,일반숙박시설
23755,37.51754234826625,126.91125365026848,모텔 P.X,객실 및 침실,일반숙박시설
31658,37.557968244483426,127.13144846416485,암사 재활원,객실 및 침실,복지시설
20208,37.502698824341415,127.03974112249331,녹스호텔,객실 및 침실,일반숙박시설
22867,37.51131078364221,127.09814039543262,롯데월드,객실 및 침실,영화관/공연장
31331,37.57141896534532,126.98977599979948,아마레호텔,객실 및 침실,일반숙박시설
31048,37.51592438141984,127.10989667740256,싼타페호텔,객실 및 침실,일반숙박시설
26908,37.673594909847424,127.05845817832814,서울노원초등학교,객실 및 침실,학교
17280,37.51853410945677,126.90741552846356,갤러리모텔,객실 및 침실,일반숙박시설
22832,37.536632041414045,127.12533738826764,롯데시네마(씨네 일레븐 14관),객실 및 침실,영화관/공연장
30949,37.515031987823406,127.10837966471169,실론 호텔,객실 및 침실,일반숙박시설
30944,37.48294075103726,126.94110275358429,실로암시각장애인복지관,객실 및 침실,복지시설
17297,37.495973318986884,126.84568623757664,갤러리아호텔,객실 및 침실,일반숙박시설
26929,37.58564377691853,126.9687741839122,서울농학교,객실 및 침실,학교
18351,37.4831824420615,126.8988572415558,구로호텔,객실 및 침실,일반숙박시설
22694,37.511268028156174,127.08343195942776,로즈마리,객실 및 침실,일반숙박시설
20187,37.60271099417693,126.9317812647442,녹번종합사회복지관,객실 및 침실,복지시설
26937,37.6872327126115,127.04926750406996,서울누원초등학교,객실 및 침실,학교
22805,37.51566911683294,126.90766791705948,롯데백화점 영등포점,객실 및 침실,영화관/공연장
42073,37.51894,127.115517,가락종합사회복지관 화장실,객실 및 침실,화장실
42012,37.489731,127.111309,송파여성문화회관 화장실 화장실,객실 및 침실,화장실
30840,37.5589747524222,126.94145945501766,신촌민자역사(메가박스),객실 및 침실,영화관/공연장
17312,37.5158147899758,127.11146653105864,갤러리 호텔,객실 및 침실,일반숙박시설
26965,37.494711905100964,127.065026466778,서울대곡초등학교,객실 및 침실,학교
23693,37.474949317753776,126.98088519078196,명작모텔,객실 및 침실,일반숙박시설
26977,37.61236603613672,126.92586935917255,서울대은초등학교,객실 및 침실,학교
22766,37.56596788090347,126.80077792802679,롯데몰,객실 및 침실,영화관/공연장
22617,37.53814559105536,127.13836541882624,렉스모텔,객실 및 침실,일반숙박시설
31100,37.568604335993854,126.99074984658421,써튼호텔,객실 및 침실,일반숙박시설
23709,37.49416075661188,126.8993716567622,명지성묘,객실 및 침실,종합병원
31325,37.572706027669284,126.99942494669077,아마가호텔,객실 및 침실,일반숙박시설
31318,37.54920005176802,126.91638545592916,아름뜰(홀트아동복지회),객실 및 침실,복지시설
22619,37.5182338917165,126.91068724580073,렉스빌모텔,객실 및 침실,일반숙박시설
26830,37.46828596790833,127.03306699554705,서울교육문화회관,객실 및 침실,영화관/공연장
22624,37.556608606934425,126.93769031178549,렉시호텔,객실 및 침실,일반숙박시설
31287,37.63248648305026,127.02206437733852,아름다운교회사랑의집,객실 및 침실,복지시설
22632,37.59385648767496,127.01726100982971,로데오모텔,객실 및 침실,일반숙박시설
23721,37.49397716694457,126.89962520338574,명지성묘 별관,객실 및 침실,종합병원
31254,37.519825616969094,126.90905190306154,아로마모텔,객실 및 침실,일반숙박시설
26897,37.663726523222905,127.06684648280256,서울노원지역자활센터,객실 및 침실,복지시설
27028,37.56812375256784,127.03510779621979,서울동명초등학교,객실 및 침실,학교
31184,37.5397309792352,127.12580875141914,씨에프모텔,객실 및 침실,일반숙박시설
22650,37.485135240082606,127.01221578150476,로미오모텔,객실 및 침실,일반숙박시설
31183,37.515359744823996,127.10860636417559,씨에스타호텔,객실 및 침실,일반숙박시설
22651,37.511006824397505,127.08071259574746,로보그라드모텔,객실 및 침실,일반숙박시설
31150,37.52289661859363,127.03701422852512,씨네시티빌딩,객실 및 침실,영화관/공연장
17254,37.48495875558483,127.05940537038772,개포고등학교,객실 및 침실,학교
30543,37.60581978854393,127.09160988237798,신내종합사회복지관,객실 및 침실,복지시설
22847,37.55724633358884,126.92498689996236,롯데시네마홍대관입구관,객실 및 침실,영화관/공연장
31118,37.4963086044978,126.8457714914862,쎄비앙,객실 및 침실,일반숙박시설
31220,37.603360332722346,127.03321728798107,아도카모텔,객실 및 침실,일반숙박시설
29828,37.64256756576402,127.01683718170229,수유종합사회복지관,객실 및 침실,복지시설
30173,37.593424078286034,127.01679892811285,시네마호텔,객실 및 침실,일반숙박시설
26617,37.580605254328255,126.93353130974691,서대문문화체육회관,객실 및 침실,영화관/공연장
16976,37.61633878840478,127.03098946337694,강북구립보호작업장,객실 및 침실,복지시설
32354,37.570482008897095,126.92226597746088,열린여성센터,객실 및 침실,복지시설
29948,37.534280205056426,127.00387848598398,순천향대학교병원,객실 및 침실,종합병원
42458,37.502635,127.12784099999999,삼전동주민센터 화장실,객실 및 침실,화장실
22433,37.49765595023511,127.03045182098198,라누이 아모르 모텔,객실 및 침실,일반숙박시설
32287,37.561407126853716,126.9408237307159,연세의료원 의과대학교수연구동,객실 및 침실,학교
29981,37.515048981349004,127.10949271404793,쉐르빌호텔,객실 및 침실,일반숙박시설
41212,37.495332,127.14081200000001,서울병원 화장실,객실 및 침실,화장실
23804,37.525843326684615,126.86954915301556,목동 K.T,객실 및 침실,영화관/공연장
27226,37.66413241857218,127.04728468174284,서울문화고등학교,객실 및 침실,학교
32274,37.60615009391692,126.9333953356898,연세에덴요양병원,객실 및 침실,종합병원
15045,37.485281715327524,126.931354504847,(주)관전인베스트먼트,객실 및 침실,일반숙박시설
32253,37.530967347037155,126.85343867486813,연세대학교강서지역자활센타,객실 및 침실,복지시설
29994,37.516183985495694,127.1135845739304,쉴 모텔(구 페리온),객실 및 침실,일반숙박시설
29996,37.569429631421386,126.990541466621,쉴호텔,객실 및 침실,일반숙박시설
32239,37.56593156944718,126.8520707894286,연세가양4종합복지관,객실 및 침실,복지시설
42425,37.513884000000004,127.106397,송파2동주민센터 화장실,객실 및 침실,화장실
20076,37.62924793057825,127.0596650314527,노원제1장애인주간보호소,객실 및 침실,복지시설
17010,37.64098942633013,127.01387735123377,강북문화예술화관,객실 및 침실,영화관/공연장
41252,37.50277,127.09253799999999,힘찬병원 화장실,객실 및 침실,화장실
29986,37.53883250087944,127.12682104945921,쉴모텔,객실 및 침실,일반숙박시설
27199,37.558713415016726,127.15309397367679,서울묘곡초등학교,객실 및 침실,학교
22416,37.52975098183508,126.86087624972069,따스한봄날처럼,객실 및 침실,종합병원
22990,37.65381977005024,127.05161159331509,리젠트호텔,객실 및 침실,일반숙박시설
40974,37.50275,127.12838899999998,효창빌딩 화장실,객실 및 침실,화장실
27275,37.481585344616796,126.9117077397649,서울본병원 구강남중앙병원,객실 및 침실,종합병원
32757,37.527073608816046,126.87074619293999,예술인센터,객실 및 침실,영화관/공연장
21071,37.50199281973383,127.02524227413288,대준산업주식회사,객실 및 침실,종합병원
32650,37.517518600646746,126.90847102437628,영화호텔,객실 및 침실,일반숙박시설
26260,37.500138223984386,126.9209502154868,상도종합사회복지관,객실 및 침실,복지시설
29839,37.62366545742876,127.01217951071285,수유중학교,객실 및 침실,학교
27259,37.629025569939756,127.04003939095571,서울번동초등학교,객실 및 침실,학교
18607,37.5651938759843,126.96544140920116,구세군144주년기념빌딩,객실 및 침실,영화관/공연장
32391,37.51036082715669,126.84315021326874,열방교회사회복지관,객실 및 침실,복지시설
32615,37.47888967619931,126.89432715056292,영진오피스,객실 및 침실,종합병원
22367,37.55976671198128,126.80807868700708,디아망호텔,객실 및 침실,일반숙박시설
26280,37.604109716477396,126.9551587033551,상명대학교 대학원,객실 및 침실,학교
20686,37.475205204561405,126.98088512561226,다이나모텔,객실 및 침실,일반숙박시설
32538,37.480484024671945,127.03841785614642,영산문화재단,객실 및 침실,영화관/공연장
29904,37.491474460406096,127.0526123559298,숙명여자고등학교,객실 및 침실,학교
27245,37.66381989999999,127.0308996,서울방학초등학교,객실 및 침실,학교
27237,37.621531701672396,127.0141319970728,서울미양초등학교,객실 및 침실,학교
26303,37.55095841668293,126.92106405980402,상상라이브홀,객실 및 침실,영화관/공연장
29917,37.54463347433031,126.96671373455322,숙명여자대학교 다목적관,객실 및 침실,학교
20681,37.61894280874471,127.08031262372484,"다운복지관(1층,2층)",객실 및 침실,복지시설
30170,37.51613923175421,127.03657653314129,시너지정형외과병원,객실 및 침실,종합병원
41268,37.503592,127.103652,잠실중앙상가 화장실,객실 및 침실,화장실
27186,37.54293623076178,126.88244613233448,서울목원초등학교,객실 및 침실,학교
22482,37.51540333348431,127.10823541733299,라자 호텔,객실 및 침실,일반숙박시설
17071,37.61636736511229,127.03194543709392,강북장애인복지관,객실 및 침실,복지시설
31964,37.5011788522105,126.84124687039156,에덴장애인종합복지관,객실 및 침실,복지시설
23784,37.527196793412344,126.87469197547888,목동 CGV,객실 및 침실,영화관/공연장
17442,37.57057635236377,127.07099668143776,경남관광호텔,객실 및 침실,일반숙박시설
27130,37.56687640422922,126.9098459223687,서울 메디칼센터 ,객실 및 침실,종합병원
30101,37.590077022223966,127.02982819761117,승가원,객실 및 침실,복지시설
26556,37.55331454988785,126.91976238202065,서교동 관광호텔 ,객실 및 침실,일반숙박시설
31912,37.50490856937278,127.02479086770352,어반하이브,객실 및 침실,종합병원
42368,37.503106,127.099043,제우빌딩 화장실,객실 및 침실,화장실
20969,37.5034387377086,126.90520846707676,대영중학교,객실 및 침실,학교
27116,37.57749829624864,126.96694363685718,서울매동초등학교,객실 및 침실,학교
41456,37.495961,127.149872,서울주유소 화장실,객실 및 침실,화장실
17097,37.62800238404007,127.02595546516173,강북제일교회사회복지시설,객실 및 침실,복지시설
31870,37.540047657099656,127.12625283153031,어거스트모텔,객실 및 침실,일반숙박시설
30135,37.49838684086344,127.09360904036049,시각장애인복지관,객실 및 침실,복지시설
17430,37.565196493810745,126.96222233842104,경기대학교,객실 및 침실,학교
31830,37.51651994177261,126.86333956388799,양천구민회관,객실 및 침실,영화관/공연장
41493,37.510334,127.101129,트레져오일몽촌주유소 화장실,객실 및 침실,화장실
23761,37.478481454105406,126.88933512241164,모텔케슬,객실 및 침실,일반숙박시설
22507,37.57883613347313,126.96978684910826,라파엘의집,객실 및 침실,복지시설
17466,37.586601870890895,127.01603202418772,경동고등학교,객실 및 침실,학교
31990,37.615183661906784,126.91424569590326,에버그린하우스,객실 및 침실,복지시설
26511,37.55146840754552,126.943027035678,서강대학교 토마스 모어관(고시동) ,객실 및 침실,학교
18544,37.51198095762709,126.93244303956894,구립장애인보호작업장,객실 및 침실,복지시설
22449,37.51108686132628,127.04561352618065,라마다 서울 호텔,객실 및 침실,일반숙박시설
32172,37.501782419342405,127.04256342063887,역삼모텔,객실 및 침실,일반숙박시설
22973,37.54854693254492,126.87818239805556,리버파크,객실 및 침실,일반숙박시설
27178,37.498168158252795,126.82744309205404,서울모자의집,객실 및 침실,복지시설
30020,37.56922759223304,126.98814630278456,스카이모텔,객실 및 침실,일반숙박시설
32150,37.51161024945213,126.9272268735857,여성프라자,객실 및 침실,복지시설
26462,37.604126836868076,127.03704537943935,생명의전화종합사회복지관,객실 및 침실,복지시설
30036,37.52036268610379,126.93036311902478,스타빌딩,객실 및 침실,일반숙박시설
30078,37.528248987636154,126.92012863489585,스테이세븐프리미어호텔,객실 및 침실,일반숙박시설
22462,37.56590167759849,127.00280256392492,라마다호텔,객실 및 침실,일반숙박시설
32076,37.47934217160867,126.88864645788664,에펠준모텔,객실 및 침실,일반숙박시설
18529,37.489727219184644,126.82478039574607,구립장애인보호작업시설,객실 및 침실,복지시설
17051,37.642544972468045,127.02263387878992,강북우리들병원,객실 및 침실,종합병원
32051,37.55363390410986,126.93507175744956,에스호텔(갤러리모텔),객실 및 침실,일반숙박시설
26495,37.55688483509514,126.81568693660984,샬롬의집,객실 및 침실,복지시설
22472,37.51710963554429,126.91094648881716,라이프스타일,객실 및 침실,일반숙박시설
27155,37.5920424099565,127.09979527957508,서울 면일 초등학교,객실 및 침실,학교
22480,37.51716087845786,126.91199613956104,라이프스타일R호텔,객실 및 침실,일반숙박시설
20986,37.54055357354346,127.12497734386659,대우베네스티,객실 및 침실,종합병원
30059,37.541063363302115,127.07086006197616,스타시티 영존,객실 및 침실,영화관/공연장
25481,37.536983023856585,126.88674595133648,빨라쪼 이대목동병원점,객실 및 침실,종합병원
42893,37.49355,127.146817,올림픽공원-수영장(옥외화장실) 화장실,객실 및 침실,화장실
22050,37.505714122452034,126.93341680787148,동작종합사회복지관,객실 및 침실,복지시설
21501,37.66915401031681,127.04384668924344,도봉병원<건강검진센터>,객실 및 침실,종합병원
36816,37.561756209621905,126.98527716824164,클릭호텔,객실 및 침실,일반숙박시설
23357,37.502742010062505,127.03992661913296,맨하탄 호텔,객실 및 침실,일반숙박시설
38638,37.62948895668255,127.0161681118612,한빛효정,객실 및 침실,복지시설
27820,37.648046209598405,127.05175263938412,서울월천초등학교,객실 및 침실,학교
36793,37.52899873048843,126.84709801199732,크로싱호텔,객실 및 침실,일반숙박시설
36774,37.53174986838762,126.99041046191596,크라운관광호텔,객실 및 침실,일반숙박시설
36758,37.56925643585085,126.9882640202324,큐브 호텔,객실 및 침실,일반숙박시설
36716,37.52968025834172,126.92084211809376,코보스호텔,객실 및 침실,일반숙박시설
15959,37.58892005819255,127.00775358099222,R호텔,객실 및 침실,일반숙박시설
24708,37.65640600923996,127.0359063426612,백운중학교,객실 및 침실,학교
24710,37.5482012588266,126.8474299690502,백제산장,객실 및 침실,일반숙박시설
36691,37.53422281397543,127.13351572798048,코리아관광호텔,객실 및 침실,일반숙박시설
19219,37.56930782505573,126.8486954521885,기쁜우리복지관,객실 및 침실,복지시설
27808,37.63871159888088,127.0150053909544,서울우이초등학교,객실 및 침실,학교
36656,37.50664792164599,127.05143771858684,캘리포니아호텔,객실 및 침실,일반숙박시설
36651,37.494103905988936,127.11912826555708,캘리포니아관광호텔,객실 및 침실,일반숙박시설
20402,37.55412810039832,126.85173650252209,뉴리젠트호텔,객실 및 침실,일반숙박시설
36637,37.52856411526896,126.99310795405232,캐피탈호텔,객실 및 침실,일반숙박시설
20485,37.51111311580585,127.0314119051569,뉴힐탑관광호텔,객실 및 침실,일반숙박시설
19605,37.58081491141709,127.00398052499972,낙산제빌딩,객실 및 침실,영화관/공연장
24745,37.616691176074944,127.03389828342668,번동중학교,객실 및 침실,학교
27828,37.65059010781853,127.07308983586769,서울을지초등학교,객실 및 침실,학교
36859,37.50669458199032,127.0518765774668,타라호텔,객실 및 침실,일반숙박시설
38478,37.51990580247737,127.13200155968521,한국체육대학교,객실 및 침실,학교
24586,37.570718963971686,126.80572779900083,방화11종합복지관(별관),객실 및 침실,복지시설
19563,37.549185294961816,126.87862496135864,나이아가라관광호텔,객실 및 침실,일반숙박시설
37090,37.452940401450135,126.90252813750799,테마모텔,객실 및 침실,일반숙박시설
37057,37.56773597270606,126.99374274908294,태훈빌딩,객실 및 침실,일반숙박시설
27854,37.6948396108732,127.0424422316215,서울인강학교,객실 및 침실,학교
37031,37.4848286534059,127.09339764688215,태화기독교사회복지관,객실 및 침실,복지시설
27846,37.536478066990746,126.98767175511551,서울이태원초등학교,객실 및 침실,학교
43702,37.472947,126.8979,SK네트웍스㈜ 이가주유소 화장실,객실 및 침실,화장실
19250,37.66548951664893,127.04193588418718,기업은행(6층 병원),객실 및 침실,종합병원
19575,37.56857825020632,126.98302554431255,나인트리호텔,객실 및 침실,일반숙박시설
17837,37.55466853656621,126.93559597865871,관광숙박시설,객실 및 침실,일반숙박시설
24618,37.49768949874503,127.09581108705886,배명중중고등학교,객실 및 침실,학교
21731,37.61441833701418,126.92282282198887,동명여자정보산업고등학교,객실 및 침실,학교
36931,37.59141686382325,127.01536274839941,탑텔호텔,객실 및 침실,일반숙박시설
36910,37.52970201013525,126.842001005714,타임호텔,객실 및 침실,일반숙박시설
24634,37.537207153762296,127.1267685126919,배윤자요리학원,객실 및 침실,종합병원
23468,37.55671687673067,126.93797542329287,메르디앙,객실 및 침실,일반숙박시설
38586,37.503533892342475,127.05944722750549,한맘플러스재활의학과의원,객실 및 침실,종합병원
36900,37.517233707169474,126.90371599319953,타임스퀘어(CGV영등포),객실 및 침실,영화관/공연장
36988,37.53809651518357,127.12415405824757,태승빌딩,객실 및 침실,종합병원
15993,37.48548736520558,126.93173422422815,SHOW모텔,객실 및 침실,일반숙박시설
28372,37.49303927737396,127.00744512961408,서초동 근생,객실 및 침실,영화관/공연장
36630,37.554543459623694,126.85245545289158,칼튼호텔,객실 및 침실,일반숙박시설
36377,37.509660515785015,127.04336867118721,청음회관,객실 및 침실,복지시설
24838,37.53036480000944,126.92051556466166,벤허호텔,객실 및 침실,일반숙박시설
16257,37.5836476795585,127.00231413577556,㈜에니웍스,객실 및 침실,영화관/공연장
24850,37.6094469232038,126.93200615326448,벨라지오 관광호텔,객실 및 침실,일반숙박시설
23303,37.549196642392594,126.94049389365965,맑음터단기보호센터,객실 및 침실,복지시설
36299,37.640738169163775,127.04065751021268,청소년문화회관,객실 및 침실,복지시설
36284,37.65421670084514,127.02907870554549,청소년문화의집,객실 및 침실,복지시설
27779,37.56083350018128,126.926898334385,서울외국인학교,객실 및 침실,학교
43503,37.4350456,126.8947281,금천우체국 화장실,객실 및 침실,화장실
21802,37.55113478901839,127.12843980626549,동부센트럴요양병원,객실 및 침실,종합병원
36259,37.64821330621304,127.02583105275372,청소년랜드,객실 및 침실,복지시설
28552,37.53328511355852,126.89430023137741,선유중학교,객실 및 침실,학교
16272,37.51881599952303,126.90387685002165,㈜연합충무,객실 및 침실,종합병원
27772,37.494003349918756,126.8259690590388,서울온수초등학교,객실 및 침실,학교
15871,37.48485991473142,126.93113327989236,M모텔,객실 및 침실,일반숙박시설
27760,37.51242464921969,127.13450843576594,서울오륜초등학교,객실 및 침실,학교
20386,37.68556742626127,127.04993302263458,누원고등학교,객실 및 침실,학교
15863,37.518555516832365,126.90713949511914,Moon 호텔,객실 및 침실,일반숙박시설
21835,37.54359263974918,127.07206642939407,동서빌딩,객실 및 침실,종합병원
39047,37.57228192048,127.06950860418002,햇살요양병원,객실 및 침실,종합병원
38967,37.49405188190481,127.07775877337164,해마을주간보호센터,객실 및 침실,복지시설
21769,37.571258848183824,126.91984274888206,동방사회복지회관(별관),객실 및 침실,복지시설
17990,37.5162599,126.90519010000004,광야홈리스센터,객실 및 침실,복지시설
19643,37.49744001001498,127.09680592263823,남경모텔,객실 및 침실,일반숙박시설
36621,37.52047228473142,126.90642219834831,칼튼모텔,객실 및 침실,일반숙박시설
38754,37.554503908803866,127.04661325410736,한양대병원 ,객실 및 침실,종합병원
28390,37.485106427301524,127.01202582397222,서초모텔,객실 및 침실,일반숙박시설
36601,37.57370988257369,127.01977847683428,카라모텔,객실 및 침실,일반숙박시설
24763,37.50298753137399,126.89180512705305,베르사이유,객실 및 침실,일반숙박시설
36574,37.47400672167875,127.05027579224868,충현복지관,객실 및 침실,복지시설
23336,37.51992152829705,126.90725544672176,맥스모텔,객실 및 침실,일반숙박시설
36515,37.4813462694,126.91497323629999,최병만,객실 및 침실,일반숙박시설
24787,37.50637785603889,127.0297858159252,베스트웨스턴 호텔 강남호텔,객실 및 침실,일반숙박시설
38864,37.631313046312435,127.07244106966206,한천증학교,객실 및 침실,학교
36504,37.529340646506355,126.8467398112625,초콜릿호텔,객실 및 침실,일반숙박시설
24797,37.56617915968971,126.99630096410387,베스트웨스턴 호텔국도,객실 및 침실,일반숙박시설
36459,37.47898554719118,126.8888324020082,첼로모텔,객실 및 침실,일반숙박시설
19180,37.55302155799261,127.08684188518644,급식동,객실 및 침실,학교
36456,37.48621994497676,127.01322905497628,첼로가든,객실 및 침실,일반숙박시설
15903,37.53092259844149,126.83847310770923,NYX  HOTEL,객실 및 침실,일반숙박시설
28445,37.45480527461419,126.90010253661859,서평빌딩,객실 및 침실,종합병원
43563,37.47855300000001,126.89215,성부주유소 화장실,객실 및 침실,화장실
15899,37.48628477285406,127.01362254632951,NINETH 호텔,객실 및 침실,일반숙박시설
28993,37.56515695114194,126.90043527997923,성산임대아파트 사회복지관 ,객실 및 침실,복지시설
36502,37.497238152496635,127.0293886480781,초코렛 호텔(구 베르사유 모텔),객실 및 침실,일반숙박시설
27748,37.48564457414372,126.883811365561,서울영일초등학교,객실 및 침실,학교
23374,37.501601039474615,127.03519424105166,머큐어 서울 앰배서더 강남 쏘도베,객실 및 침실,일반숙박시설
37131,37.57237398131131,126.98933665725396,톰지호텔,객실 및 침실,일반숙박시설
24291,37.47944307985517,126.95330226298807,바이올린모텔,객실 및 침실,일반숙박시설
24293,37.50461115471311,127.05256276295229,바카스 호텔(트윈스빌딩),객실 및 침실,일반숙박시설
20443,37.56799000258231,126.9781674629412,뉴서울호텔,객실 및 침실,일반숙박시설
23424,37.59308085084436,127.07475012589887,메가박스 상봉점,객실 및 침실,영화관/공연장
38090,37.52455843520887,126.96417956815701,하이원빌리지(원불교수도원),객실 및 침실,종합병원
37715,37.49484726568385,127.0186268424658,프로비스타,객실 및 침실,일반숙박시설
38106,37.56126607811881,126.98536328312971,하이해리엇,객실 및 침실,영화관/공연장
37699,37.529022751452665,126.8407308200552,프렌치MT,객실 및 침실,일반숙박시설
37695,37.48686020806428,127.0217139264024,프렌드호텔,객실 및 침실,일반숙박시설
37730,37.53770966188148,127.13823336344323,프리마호텔(리치호텔),객실 및 침실,일반숙박시설
37686,37.565633224291844,126.97943133739678,프레지던트호텔,객실 및 침실,일반숙박시설
24203,37.569879682776545,126.98604076887199,밀레니엄차과 병원 ,객실 및 침실,종합병원
38129,37.496937004755466,127.12575954295937,하트하트재단사옥,객실 및 침실,복지시설
21639,37.54526029862822,127.13800740968418,돌봄의 집,객실 및 침실,복지시설
19390,37.51600967506188,127.11118177434786,까사,객실 및 침실,일반숙박시설
37667,37.56258217570571,126.96977530472992,프레이저플레이스센트럴서울,객실 및 침실,일반숙박시설
37660,37.647252268628186,127.01952147940388,프란체스코의집,객실 및 침실,복지시설
24381,37.5071164190274,127.00987139904676,반포자이중심상가,객실 및 침실,종합병원
38148,37.56249450458611,127.08943800174808,학교법인대원학원인정관,객실 및 침실,학교
28118,37.65660101150973,127.03460091284501,서울창경초등학교,객실 및 침실,학교
20459,37.637899392963284,127.02316270552664,뉴캐슬 모텔,객실 및 침실,일반숙박시설
38162,37.59871321499028,126.91883492175856,학교법인 신진학원,객실 및 침실,학교
37759,37.56072562577968,126.98659027459604,프린스호텔,객실 및 침실,일반숙박시설
19483,37.56024040629791,126.85169270104666,꿈자람터?장애인주간보호센터,객실 및 침실,복지시설
37867,37.563776537733396,126.94409066661801,필름포럼(빌딩),객실 및 침실,영화관/공연장
16117,37.61835772036083,127.07677348271562,W호텔,객실 및 침실,일반숙박시설
43909,37.4817722,126.86427990000001,재능유통 화장실,객실 및 침실,화장실
37844,37.51949494481671,126.91022421724888,필름오스카모텔,객실 및 침실,일반숙박시설
37842,37.51647661701556,127.11284751141777,필름모텔,객실 및 침실,일반숙박시설
38013,37.48496126942052,127.03509598049035,하늘빌딩,객실 및 침실,종합병원
24247,37.55651883763815,126.9383196393222,바론드파리,객실 및 침실,일반숙박시설
19440,37.57208210673918,126.9898800517909,꾸띠호텔,객실 및 침실,일반숙박시설
37830,37.571278426795466,126.9899707183826,피카소 모텔,객실 및 침실,일반숙박시설
38066,37.49255430492796,127.07513380267449,하상장애인복지관,객실 및 침실,복지시설
37828,37.57102624835606,126.99122950203235,피카다리플러스,객실 및 침실,영화관/공연장
37806,37.495979169427656,126.84465038113682,피아노모텔,객실 및 침실,일반숙박시설
16086,37.55634170573935,126.93730121307377,VERTIGO빌딩,객실 및 침실,영화관/공연장
37788,37.56613129566349,127.01589633620651,플러스모텔,객실 및 침실,일반숙박시설
37777,37.54638682298477,126.84617533283287,플라워모텔,객실 및 침실,일반숙박시설
37776,37.59332656717455,127.01817579145664,플라망스타워,객실 및 침실,종합병원
28039,37.51136681725964,127.0485182781177,서울주요무형문화제전수회관,객실 및 침실,영화관/공연장
20457,37.455500656624274,126.89986652484035,뉴연세산부인과,객실 및 침실,종합병원
19423,37.53528554168322,127.13705672944307,까펠레호텔,객실 및 침실,일반숙박시설
27953,37.553820734094046,127.151906988264, 서울장애인종합복지관,객실 및 침실,복지시설
24258,37.515033620262926,127.0171025800996,바빌론관광호텔,객실 및 침실,일반숙박시설
37114,37.56470484765881,127.0089644390788,토요코인 서울동대문,객실 및 침실,일반숙박시설
16057,37.516200316290785,127.11157569392452,The View ,객실 및 침실,일반숙박시설
37557,37.50519098185857,126.89740705444599,포스코메디칼,객실 및 침실,종합병원
16023,37.4826252381686,127.06270949701906,SM호텔,객실 및 침실,일반숙박시설
37290,37.48710644999925,127.01398452011124,파브,객실 및 침실,일반숙박시설
23454,37.54255130105838,127.1400437101922,메디아카데미,객실 및 침실,복지시설
37259,37.558616359490046,126.97999462999336,파레스호텔,객실 및 침실,일반숙박시설
37256,37.59049788859196,127.01507722894905,파라오모텔,객실 및 침실,일반숙박시설
20474,37.55977770045081,126.80818731137579,뉴티파니관광호텔,객실 및 침실,일반숙박시설
19546,37.57857055589151,127.0387308392912,나은빌딩,객실 및 침실,종합병원
24528,37.514644489531854,127.11418851918964,방이복지관,객실 및 침실,복지시설
37232,37.48214814752219,126.89893099585429,티타운빌딩,객실 및 침실,종합병원
28210,37.64147682710271,127.05821545844329,서울특별시립 노원청소년수련관,객실 및 침실,수련시설
24183,37.50341969375232,126.89145617166824,밀라노,객실 및 침실,일반숙박시설
37218,37.550103350883774,127.09027872272486,티지아이에프빌딩,객실 및 침실,학교
21706,37.58402116625186,127.03419594182556,동대문종합사회복지관,객실 및 침실,복지시설
37198,37.57125686508294,126.99073140697232,티모텔,객실 및 침실,일반숙박시설
37192,37.484288554654405,127.04231379470578,튼튼영어(유니북스 사옥),객실 및 침실,영화관/공연장
27871,37.64305134096786,127.00913700633278,서울인수초등학교,객실 및 침실,학교
17845,37.56414716134401,126.91328555305857,관광숙박시설(더엠호텔),객실 및 침실,일반숙박시설
37156,37.53755785394993,127.13860872869637,투비인관광호텔,객실 및 침실,일반숙박시설
28254,37.54071221412226,126.84747238668041,서울화일초등학교,객실 및 침실,학교
37142,37.57211490121443,127.004210987012,투모텔,객실 및 침실,일반숙박시설
38398,37.55111217993112,127.16924768085251,한국 시각장애인 복지관,객실 및 침실,복지시설
37584,37.511040116294375,127.07945036587776,폼 모텔,객실 및 침실,일반숙박시설
20430,37.58315289082178,127.0731914133896,뉴비젼빌딩,객실 및 침실,복지시설
37322,37.55224124081821,126.86831262426232,파인블루빌딩,객실 및 침실,종합병원
28130,37.54101500206292,127.13782759423508,서울천동초등학교,객실 및 침실,학교
16151,37.54521205881573,126.92996885322214,Y모텔 ,객실 및 침실,일반숙박시설
37530,37.484902911887545,126.93070358643429,포도모텔,객실 및 침실,일반숙박시설
37525,37.646177365623295,127.06965899136732,평화종합사회복지관,객실 및 침실,복지시설
28143,37.533738733472696,127.12120970704676,서울초이스병원,객실 및 침실,종합병원
19524,37.63642373050545,127.07764405340069,나눔아트센터,객실 및 침실,복지시설
28164,37.55924390572765,127.15802966315157,서울컨벤션고등학교,객실 및 침실,학교
21665,37.57804844288409,127.07513358626969,동국대학교사범대학부속고등학교,객실 및 침실,학교
37449,37.51794154140142,126.91012653562241,페트라호텔,객실 및 침실,일반숙박시설
27892,37.58360913309185,126.8844155644079,서울일본인학교(상암일본인학교),객실 및 침실,학교
43782,37.467762,126.90966,금천체육공원화장실 화장실,객실 및 침실,화장실
16162,37.60862039307808,126.92991397440537,cs모텔,객실 및 침실,일반숙박시설
19347,37.608815196546814,127.02478001302087,길음종합사회복지관,객실 및 침실,복지시설
37383,37.50144407512777,127.00247444856949,팰리스호털,객실 및 침실,일반숙박시설
23399,37.60993102793067,127.03071499041259,메가박스,객실 및 침실,영화관/공연장
37368,37.65488717620056,127.05798567946972,팰리스모텔,객실 및 침실,일반숙박시설
17936,37.57258243790213,126.9842109640222,관훈동 관광숙박시설,객실 및 침실,일반숙박시설
37348,37.50873196084404,127.0642831000689,파크하얏트서울,객실 및 침실,일반숙박시설
28198,37.566477688916,127.17303128924776,서울특별시립강동청소년수련관,객실 및 침실,수련시설
24486,37.66931261272068,127.0326391263692,방아골복지관,객실 및 침실,복지시설
37407,37.560758100743215,126.98693886745892,퍼시픽호텔,객실 및 침실,일반숙박시설
24944,37.4795397858857,126.95180078234371,보보스모텔,객실 및 침실,일반숙박시설
24822,37.498031658269326,127.05719922660332,베스티안 서울병원,객실 및 침실,종합병원
22780,37.65527828182756,127.06139025733995,롯데백화점,객실 및 침실,영화관/공연장
25141,37.48312805437037,127.00935266951677,부원빌딩,객실 및 침실,종합병원
43220,37.45896629999999,126.89741609999999,시흥4동 주민센터 화장실,객실 및 침실,화장실
23517,37.55150125484477,126.91395205031792,메세나 폴리스,객실 및 침실,영화관/공연장
39440,37.50300900000001,126.85281100000002,고척근린공원 소공원 화장실,객실 및 침실,화장실
28844,37.655929913212475,127.06913320420664,성민복지관,객실 및 침실,복지시설
34877,37.48987837592232,126.88655929809906,장애인전산교육장,객실 및 침실,복지시설
35388,37.57257143054396,127.01718817657421,종로 산업정보학교,객실 및 침실,학교
35339,37.48372831894103,127.02162709052679,조하네스빌딩,객실 및 침실,학교
43093,37.47686820000001,126.8830013,가산동 주민센터 화장실,객실 및 침실,화장실
39751,37.571378,127.040233,마장축산물평면주차장 화장실,객실 및 침실,화장실
43204,37.4402328,126.89704809999999,시흥3동 주민센터 화장실,객실 및 침실,화장실
39472,37.485145,126.847953,개웅산공원 화장실,객실 및 침실,화장실
27646,37.63653907999417,127.0420827545972,서울신창초등학교,객실 및 침실,학교
25338,37.516369910341155,127.02193965328378,브로드웨이시네마(1-5),객실 및 침실,영화관/공연장
39456,37.502194,126.839656,잦절약수터 입구 화장실,객실 및 침실,화장실
34852,37.550367907036325,127.12435547520664,장애인사랑의쉼터의집,객실 및 침실,복지시설
25362,37.51524372356318,127.10935726348323,블루모텔,객실 및 침실,일반숙박시설
21385,37.59593255394121,127.08894806991199,더홀릭호텔,객실 및 침실,일반숙박시설
35629,37.61735834591804,127.08366362562721,중랑구립직업재활센터,객실 및 침실,복지시설
24097,37.5621440496548,126.97665251026044,미시간모텔,객실 및 침실,일반숙박시설
20538,37.649839127725855,127.08070849567379,늘편한집,객실 및 침실,복지시설
28820,37.470591011692854,127.1193079878192,성모자애복지관,객실 및 침실,복지시설
35560,37.65609213052153,127.07496737302755,중계종합사회복지관,객실 및 침실,복지시설
25374,37.49223934642689,127.02946810547635,비발디,객실 및 침실,일반숙박시설
27586,37.64253699263409,127.056969927077,서울시립북부장애인종합복지관,객실 및 침실,복지시설
18945,37.55140668214402,126.86334831728522,그린월드호텔,객실 및 침실,일반숙박시설
25279,37.4739618831004,126.98133764375956,뷰티모텔,객실 및 침실,일반숙박시설
35465,37.55047667562073,127.12713048064495,"주몽 학교,주몽재활원",객실 및 침실,복지시설
20367,37.60564519156108,126.90634278387111,누야하우스,객실 및 침실,복지시설
16457,37.54083991216595,126.97232319812241,가야호텔,객실 및 침실,일반숙박시설
16358,37.54459718097464,127.13799260844502,가나안의집,객실 및 침실,복지시설
35443,37.50117824142917,127.02556317947338,주류성빌딩,객실 및 침실,종합병원
43236,37.4523731,126.89954080000001,시흥5동 주민센터 화장실,객실 및 침실,화장실
39498,37.491017,126.863285,목감교 화장실,객실 및 침실,화장실
25202,37.679706390307324,127.0524094511817,북부종합사회복지관,객실 및 침실,복지시설
20555,37.568536051157714,126.851119344796,늘푸른나무복지관,객실 및 침실,복지시설
15693,37.48223033295346,127.01273992010954,KH바텍사옥,객실 및 침실,영화관/공연장
25306,37.582279873248936,127.02130686801864,브라운관광호텔,객실 및 침실,일반숙박시설
35136,37.479755878027454,126.95143433207892,정영하,객실 및 침실,일반숙박시설
21365,37.532340459462816,127.06676977458929,더클래식544 노유자시설동,객실 및 침실,일반숙박시설
15666,37.518711488257054,126.92941898842821,KBS방송국 서울별관,객실 및 침실,영화관/공연장
35081,37.609307840329926,127.00476123686786,정릉종합사회복지관,객실 및 침실,복지시설
15627,37.479633212144506,126.95112236887444,K.S텔,객실 및 침실,일반숙박시설
27624,37.51131204485852,126.8542145709001,서울신기초등학교,객실 및 침실,학교
25273,37.5486305530924,126.81960912001034,붐관광호텔,객실 및 침실,일반숙박시설
27612,37.64281777599706,127.05763637937977,서울 시립상이군경복지관,객실 및 침실,복지시설
18987,37.48453657069752,126.92683253514495,근생및관광숙박시설,객실 및 침실,일반숙박시설
25295,37.55299076057101,126.85008648029293,뷰티크모텔,객실 및 침실,일반숙박시설
16438,37.550762417383105,126.97550629168234,가브리엘의집,객실 및 침실,복지시설
19787,37.557281236580884,126.84309718791616,내발산동 사회복지시설,객실 및 침실,복지시설
43151,37.475137,126.8944592,독산3동 주민센터 화장실,객실 및 침실,화장실
39664,37.493255,126.819401,온수체육공원 화장실,객실 및 침실,화장실
39578,37.500023999999996,126.86924499999999,동양미래대학옆제방 화장실,객실 및 침실,화장실
19716,37.48213615704633,126.92103702238043,남서울 중학교,객실 및 침실,학교
43111,37.4701912,126.8882753,독산1동 주민센터 화장실,객실 및 침실,화장실
20348,37.510981484893996,127.08087544132972,누모텔,객실 및 침실,일반숙박시설
34891,37.43525843377429,126.90641540220813,장애인주간보호시설,객실 및 침실,복지시설
22027,37.49312014186384,126.97687755566365,동작이수종합사회복지관,객실 및 침실,복지시설
28884,37.60497407683325,127.04636840312651,성북구보훈회관,객실 및 침실,복지시설
39531,37.495033,126.87102900000001,구일역제방앞 화장실,객실 및 침실,화장실
25220,37.68154104495838,127.04283369733574,북서울중학교,객실 및 침실,학교
35161,37.653354488328986,127.03242816111988,정의여자고등학교,객실 및 침실,학교
23519,37.59614080437496,127.08997649092682,메이관광호텔,객실 및 침실,일반숙박시설
27638,37.55002187199918,127.12440469294184,서울신암초등학교,객실 및 침실,학교
25237,37.610771174669225,126.92861176442352,불광cgv,객실 및 침실,영화관/공연장
21347,37.48545212733843,127.01457668643101,더캘리포니아호텔,객실 및 침실,일반숙박시설
36079,37.48985843949111,126.84111705028654,창신 모자원,객실 및 침실,복지시설
39719,37.505251,126.84421100000002,참새소공원 화장실,객실 및 침실,화장실
15679,37.55785463072355,126.84889969671976,KGIT강서센터(한독미디어),객실 및 침실,학교
43167,37.4674311,126.8933803,독산4동 주민센터 화장실,객실 및 침실,화장실
16401,37.493852016172646,127.1187388692868,가락관광호텔,객실 및 침실,일반숙박시설
18068,37.546422028385436,127.10928510725678,광진구 공연장,객실 및 침실,영화관/공연장
34834,37.567951852620475,127.06617220033043,장안종합복지관,객실 및 침실,복지시설
28939,37.5955283953224,127.01940378389963,성북시각장애인복지관,객실 및 침실,복지시설
19828,37.64880214566842,127.05374297275465,노곡중학교,객실 및 침실,학교
43054,37.4711625,126.88011470000001,건국빌딩 화장실,객실 및 침실,화장실
28747,37.55931173695771,127.03600909480193,성동문화회관,객실 및 침실,영화관/공연장
39819,37.56161138,127.0269475,성삼공원 화장실,객실 및 침실,화장실
39216,37.49476531661165,126.98886371146713,현대크리닉빌딩,객실 및 침실,종합병원
23222,37.56544557817517,126.90080162637967,마포장애인종합복지관,객실 및 침실,복지시설
18924,37.515379536471336,127.11436609504804,그리스(구 스카이),객실 및 침실,일반숙박시설
20338,37.50098981107543,127.050967901594,누네안과병원 서울병원,객실 및 침실,종합병원
35775,37.59501969440208,127.07489247448136,중화문화복지센터,객실 및 침실,복지시설
15810,37.49989046188445,127.03038939829682,M.BIZ호텔,객실 및 침실,일반숙박시설
35825,37.56895040714242,126.99196324117331,지에스호텔,객실 및 침실,일반숙박시설
25427,37.56445465384081,127.03591649305383,비젼호텔,객실 및 침실,일반숙박시설
15602,37.56177185763962,127.05770517993437,JJ호텔,객실 및 침실,일반숙박시설
34773,37.50492160483204,127.08804830224688,잠실관광호텔,객실 및 침실,일반숙박시설
17695,37.47744337707189,126.98128703356329,골든시네마,객실 및 침실,영화관/공연장
21327,37.51856901180078,127.01808524804515,더리버사이드호텔,객실 및 침실,일반숙박시설
23497,37.56037503818132,126.9796002905616,메사,객실 및 침실,영화관/공연장
35951,37.64098042526975,127.02481335350059,참사랑너나울주간센터,객실 및 침실,복지시설
25447,37.61088601720936,127.03094189777508,빅토리아호텔,객실 및 침실,일반숙박시설
27736,37.504294551115045,126.89441802154712,서울영원초등학교,객실 및 침실,학교
28978,37.5680894748525,126.91268332694167,성사중학교 교무실,객실 및 침실,학교
34732,37.560388421927684,126.91865467935726,잔디네집,객실 및 침실,복지시설
34711,37.62334744599632,126.9261393807284,작은예수의집,객실 및 침실,복지시설
18901,37.589410771952274,126.93535772074858,그랜드힐튼호텔,객실 및 침실,일반숙박시설
24950,37.55232598542507,126.91820171502756,보보호텔,객실 및 침실,일반숙박시설
28650,37.59217301142522,127.03533649000708,성가복지병원,객실 및 침실,복지시설
27711,37.55500148302127,126.87120498609676,서울염경초등학교,객실 및 침실,학교
34972,37.48530435190007,127.01465806629496,쟈스민,객실 및 침실,일반숙박시설
23254,37.55758125670983,126.919151180836,마포장애인주간보호(월드타운대림)(월드컵북로34길13),객실 및 침실,복지시설
28779,37.57072971002936,127.03415816902093,성동장애인종합복지관,객실 및 침실,복지시설
27698,37.590449927501844,126.92520721491164,서울연은초등학교,객실 및 침실,학교
21888,37.58497031965818,127.00309764554886,동성중학교 ,객실 및 침실,학교
34812,37.564234393309405,127.05559275296908,장안빌딩,객실 및 침실,종합병원
25035,37.51309849808242,126.95595520770031,본동종합사회복지관,객실 및 침실,복지시설
39225,37.60257238666869,127.04052348588276,현대파크모텔,객실 및 침실,일반숙박시설
35676,37.58378759257659,126.98747375436035,중앙고등학교,객실 및 침실,학교
25047,37.4850692583994,126.93166676440552,볼륨모텔,객실 및 침실,일반숙박시설
17755,37.62958831565961,127.06985648241071,공릉종합사회복지관,객실 및 침실,복지시설
25379,37.568205865671395,127.06942784534279,비브호텔,객실 및 침실,일반숙박시설
35652,37.58843333651904,127.07784326623634,중랑노인종합복지관,객실 및 침실,복지시설
23534,37.55349712881167,126.93539328001982,메이져호텔(테마모텔),객실 및 침실,일반숙박시설
21334,37.53785656498583,127.13896682512336,더블유모텔,객실 및 침실,일반숙박시설
30645,37.4844866409245,126.94828802903747,신봉어린이공원,경보 및 피난설비,공원
20456,37.455500656624274,126.89986652484035,뉴연세산부인과,경보 및 피난설비,종합병원
42259,37.514733,127.127567,풍납2동 주민센터 화장실,경보 및 피난설비,화장실
43040,37.4761203,126.87561559999999,효연빌딩 화장실,경보 및 피난설비,화장실
28064,37.55526556424598,127.0885647194858,서울중곡3동우편취급국,경보 및 피난설비,우체국
17365,37.516739345798655,127.10544114839064,거여어린이공원,경보 및 피난설비,공원
17683,37.47744337707189,126.98128703356329,골든시네마,경보 및 피난설비,영화관/공연장
28177,37.53572634794616,127.09569227689691,서울테크노마트우편취급국,경보 및 피난설비,우체국
22821,37.536632041414045,127.12533738826764,롯데시네마(씨네 일레븐 14관),경보 및 피난설비,영화관/공연장
42870,37.49355,127.146817,올림픽공원-수영장(옥외화장실) 화장실,경보 및 피난설비,화장실
43042,37.4711625,126.88011470000001,건국빌딩 화장실,경보 및 피난설비,화장실
30397,37.49435977566779,126.84104871300134,시티월드,경보 및 피난설비,종합병원
20783,37.6485812672986,127.06311619032104,당현천근린공원,경보 및 피난설비,공원
30225,37.55109644167493,127.07159835340424,시립광진노인종합복지관 A동,경보 및 피난설비,복지시설
23441,37.54255130105838,127.1400437101922,메디아카데미,경보 및 피난설비,복지시설
43146,37.475137,126.8944592,독산3동 주민센터 화장실,경보 및 피난설비,화장실
17712,37.499761581997596,127.10042777462832,곰말어린이공원,경보 및 피난설비,공원
22795,37.51566911683294,126.90766791705948,롯데백화점 영등포점,경보 및 피난설비,영화관/공연장
28075,37.59903042020253,127.0955332259448,서울중랑경찰서 망우지구대,경보 및 피난설비,경찰서
42057,37.519185,127.116092,마천종합사회복지관 화장실,경보 및 피난설비,화장실
28002,37.61001392053886,127.05142274857808,서울종암경찰서 장위지구대,경보 및 피난설비,경찰서
43021,37.4733373,126.87804550000001,삼일빌딩 화장실,경보 및 피난설비,화장실
30240,37.52128419039926,126.91243020912836,시립노숙인복지시설 보현의집,경보 및 피난설비,복지시설
43906,37.4817722,126.86427990000001,재능유통 화장실,경보 및 피난설비,화장실
23397,37.60993102793067,127.03071499041259,메가박스,경보 및 피난설비,영화관/공연장
30749,37.48157797027881,126.92733741467644,신원동 주민센터,경보 및 피난설비,지역자치센터
42269,37.516964,127.12333500000001,거여1동주민센터 화장실,경보 및 피난설비,화장실
42070,37.51894,127.115517,가락종합사회복지관 화장실,경보 및 피난설비,화장실
29064,37.53421027177274,126.95459415112178,성심여자고등학교,경보 및 피난설비,학교
28980,37.56515695114194,126.90043527997923,성산임대아파트 사회복지관 ,경보 및 피난설비,복지시설
23220,37.56544557817517,126.90080162637967,마포장애인종합복지관,경보 및 피난설비,복지시설
23414,37.59308085084436,127.07475012589887,메가박스 상봉점,경보 및 피난설비,영화관/공연장
43088,37.47686820000001,126.8830013,가산동 주민센터 화장실,경보 및 피난설비,화장실
17704,37.63947177256683,127.07340524833552,골마을근린공원,경보 및 피난설비,공원
28126,37.54101500206292,127.13782759423508,서울천동초등학교,경보 및 피난설비,학교
20571,37.49315901607004,127.13322096053308,능골공원,경보 및 피난설비,공원
28117,37.65660101150973,127.03460091284501,서울창경초등학교,경보 및 피난설비,학교
23209,37.57159797459582,126.88167663247508,마포자원 회수시설,경보 및 피난설비,전시장
30531,37.60581978854393,127.09160988237798,신내종합사회복지관,경보 및 피난설비,복지시설
42927,37.529058,127.11038300000001,올림픽공원-에어돔(옥외화장실) 화장실,경보 및 피난설비,화장실
42973,37.4776571,126.8817333,삼주물산 화장실,경보 및 피난설비,화장실
42945,37.533822,127.12117099999999,올림픽공원-P1주차장(옥외화장실) 화장실,경보 및 피난설비,화장실
42213,37.51827,127.122876,보건소 화장실,경보 및 피난설비,화장실
29149,37.48180191564522,126.89056486396768,성프란치스꼬장애인종합복지관,경보 및 피난설비,복지시설
28137,37.533738733472696,127.12120970704676,서울초이스병원,경보 및 피난설비,종합병원
29026,37.54542892060686,127.04694707758443,성수문화복지회관,경보 및 피난설비,복지시설
28929,37.5955283953224,127.01940378389963,성북시각장애인복지관,경보 및 피난설비,복지시설
20763,37.52521650268876,126.895148760723,당산그린공원,경보 및 피난설비,공원
23176,37.5559950297108,126.94304622446259,마포복지종합지원센터,경보 및 피난설비,복지시설
28023,37.51136681725964,127.0485182781177,서울주요무형문화제전수회관,경보 및 피난설비,영화관/공연장
30278,37.609298609165,127.09490307049442,시립대종합사회복지관,경보 및 피난설비,복지시설
29197,37.53433070123847,126.95867169533994,세검정모텔,경보 및 피난설비,일반숙박시설
42243,37.51427,127.126347,거송경로당 화장실 화장실,경보 및 피난설비,화장실
28977,37.5680894748525,126.91268332694167,성사중학교 교무실,경보 및 피난설비,학교
22834,37.55724633358884,126.92498689996236,롯데시네마홍대관입구관,경보 및 피난설비,영화관/공연장
23200,37.5377016360478,126.94406488176188,마포우체국,경보 및 피난설비,우체국
28052,37.64168028030997,127.0685897341925,서울중계3동우체국,경보 및 피난설비,우체국
43106,37.4701912,126.8882753,독산1동 주민센터 화장실,경보 및 피난설비,화장실
30317,37.570695972747174,126.913798664514,시립서대문농아인복지관,경보 및 피난설비,복지시설
22862,37.51131078364221,127.09814039543262,롯데월드,경보 및 피난설비,영화관/공연장
28163,37.55924390572765,127.15802966315157,서울컨벤션고등학교,경보 및 피난설비,학교
17360,37.497045945054325,127.14099454847721,거여공원,경보 및 피난설비,공원
30576,37.55247290789113,127.00899466106634,신당제3동주민센터 민원,경보 및 피난설비,지역자치센터
28105,37.65183394991351,127.04273503859707,서울창5동 우체국,경보 및 피난설비,우체국
42986,37.4793528,126.88521670000002,농협관악지점 화장실,경보 및 피난설비,화장실
20524,37.649839127725855,127.08070849567379,늘편한집,경보 및 피난설비,복지시설
20552,37.568536051157714,126.851119344796,늘푸른나무복지관,경보 및 피난설비,복지시설
43538,37.446391799999994,126.8942675,kt 금천전화국 화장실,경보 및 피난설비,화장실
29560,37.605846967229745,127.10646373713423,송곡여자고등학교 ,경보 및 피난설비,학교
29792,37.65758935555793,127.01192666182043,수유4동공원,경보 및 피난설비,공원
29795,37.644748950334744,127.00684384600834,수유6동마을마당,경보 및 피난설비,공원
29548,37.58453736315516,127.07796601266115,송계공원,경보 및 피난설비,공원
28736,37.55931173695771,127.03600909480193,성동문화회관,경보 및 피난설비,영화관/공연장
29519,37.509321361263936,127.12487096390079,솔밭어린이공원,경보 및 피난설비,공원
42537,37.502708,127.09276100000001,장지동주민센터 화장실,경보 및 피난설비,화장실
28495,37.50736690387562,127.04716752861685,선릉공원 주차장,경보 및 피난설비,공원
43562,37.47855300000001,126.89215,성부주유소 화장실,경보 및 피난설비,화장실
29518,37.62307723791609,127.0893655403302,솔밭근린공원,경보 및 피난설비,공원
29790,37.64151728074396,127.02542990471972,수유3동지구대,경보 및 피난설비,경찰서
29814,37.64256756576402,127.01683718170229,수유종합사회복지관,경보 및 피난설비,복지시설
17575,37.59109845709271,127.03719743902364,경희대학교우체국,경보 및 피난설비,우체국
28766,37.57072971002936,127.03415816902093,성동장애인종합복지관,경보 및 피난설비,복지시설
42699,37.506104,127.083624,삼전지구대 화장실,경보 및 피난설비,화장실
28440,37.45480527461419,126.90010253661859,서평빌딩,경보 및 피난설비,종합병원
17498,37.5421911416662,127.07131374250031,경영관,경보 및 피난설비,학교
29498,37.53600740310847,127.11587298628555,솔바람복지센터,경보 및 피난설비,복지시설
29838,37.62366545742876,127.01217951071285,수유중학교,경보 및 피난설비,학교
20492,37.57132140660973,127.07259120738483,늘봄경로당,경보 및 피난설비,화장실
20490,37.648259435313115,127.0582116869523,느티울근린공원,경보 및 피난설비,공원
17743,37.62958831565961,127.06985648241071,공릉종합사회복지관,경보 및 피난설비,복지시설
42500,37.507311,127.093828,가락2동주민센터 화장실,경보 및 피난설비,화장실
29513,37.672481201462716,127.0063113760668,솔밭공원,경보 및 피난설비,공원
42720,37.512107,127.082406,올림픽공원-제1체육관(체조) 화장실,경보 및 피난설비,화장실
23026,37.5057369080659,127.02744216509888,리츠칼튼 서울호텔,경보 및 피난설비,일반숙박시설
23077,37.6457896595514,127.06036265466575,마들근린공원,경보 및 피난설비,공원
17544,37.569011654833886,126.96966404077531,경찰박물관,경보 및 피난설비,전시장
29704,37.66125057554483,127.06025277071224,수락산자연공원,경보 및 피난설비,공원
42603,37.508691,127.09774099999998,잠실7동주민센터 화장실,경보 및 피난설비,화장실
29717,37.48359241698574,127.08879210734777,수서 2 공원,경보 및 피난설비,공원
43427,37.465657,126.88103829999999,1호선 독산역 화장실,경보 및 피난설비,화장실
43451,37.478413700000004,126.88504409999999,가산우체국 화장실,경보 및 피난설비,화장실
29633,37.5098079854691,127.09804794436344,송파나루공원,경보 및 피난설비,화장실
29724,37.487979084583344,127.10563137733976,수서종합사회복지관,경보 및 피난설비,복지시설
29624,37.504500840217965,127.10860872751087,송파그린공원,경보 및 피난설비,공원
20664,37.61894280874471,127.08031262372484,"다운복지관(1층,2층)",경보 및 피난설비,복지시설
42588,37.506786,127.098228,잠실6동주민센터 화장실,경보 및 피난설비,화장실
28544,37.542384495585615,126.90181888777212,선유도공원,경보 및 피난설비,공원
28637,37.59217301142522,127.03533649000708,성가복지병원,경보 및 피난설비,복지시설
29617,37.50626255660117,127.10931249357498,송파1동주민센터,경보 및 피난설비,지역자치센터
23291,37.549196642392594,126.94049389365965,맑음터단기보호센터,경보 및 피난설비,복지시설
43475,37.471919299999996,126.8758764,구로세관 화장실,경보 및 피난설비,화장실
28556,37.53328511355852,126.89430023137741,선유중학교,경보 및 피난설비,학교
43410,37.4558127,126.8856088,1호선 금천구청역 화장실,경보 및 피난설비,화장실
29605,37.61127892995889,127.03062946873978,송중문화정보센터,경보 및 피난설비,도서관
29774,37.47701166097485,126.98701676710579,수영빌딩,경보 및 피난설비,종합병원
43502,37.4350456,126.8947281,금천우체국 화장실,경보 및 피난설비,화장실
29576,37.57323806526525,126.98212794055952,송암미술관,경보 및 피난설비,전시장
29777,37.62081831363557,127.0124055909832,수유1동공원,경보 및 피난설비,공원
28699,37.52342445421746,127.13418880663441,성내동우체국,경보 및 피난설비,우체국
17778,37.57275918057432,126.98535650615256,공아트스페이스,경보 및 피난설비,전시장
29903,37.491474460406096,127.0526123559298,숙명여자고등학교,경보 및 피난설비,학교
28807,37.470591011692854,127.1193079878192,성모자애복지관,경보 및 피난설비,복지시설
29912,37.54463347433031,126.96671373455322,숙명여자대학교 다목적관,경보 및 피난설비,학교
30064,37.58235716553853,126.88669989471344,스탠포드호텔 서울,경보 및 피난설비,일반숙박시설
17446,37.57057635236377,127.07099668143776,경남관광호텔,경보 및 피난설비,일반숙박시설
43183,37.4535401,126.8944932,시흥1동 주민센터 화장실,경보 및 피난설비,화장실
17611,37.58870342243334,127.03169810479416,고려대라이시움,경보 및 피난설비,학교
23372,37.501601039474615,127.03519424105166,머큐어 서울 앰배서더 강남 쏘도베,경보 및 피난설비,일반숙박시설
28277,37.59032594938217,127.0581574777813,서울휘경동우체국,경보 및 피난설비,우체국
42367,37.503106,127.099043,제우빌딩 화장실,경보 및 피난설비,화장실
23140,37.50128583701709,127.14564831816121,마천공원,경보 및 피난설비,공원
30088,37.590077022223966,127.02982819761117,승가원,경보 및 피난설비,복지시설
28255,37.54071221412226,126.84747238668041,서울화일초등학교,경보 및 피난설비,학교
20720,37.48540914333663,127.05963638492388,달터근린공원,경보 및 피난설비,공원
20715,37.6456082358658,127.06271482339432,달맞이근린공원,경보 및 피난설비,공원
43162,37.4674311,126.8933803,독산4동 주민센터 화장실,경보 및 피난설비,화장실
30120,37.49838684086344,127.09360904036049,시각장애인복지관,경보 및 피난설비,복지시설
17847,37.56414716134401,126.91328555305857,관광숙박시설(더엠호텔),경보 및 피난설비,일반숙박시설
23235,37.55758125670983,126.919151180836,마포장애인주간보호(월드타운대림)(월드컵북로34길13),경보 및 피난설비,복지시설
28240,37.53362068166887,127.00358428687193,서울한남동우체국,경보 및 피난설비,우체국
17628,37.48003154933968,126.90643195129049,고려수요양병원 금천점,경보 및 피난설비,종합병원
17429,37.565196493810745,126.96222233842104,경기대학교,경보 및 피난설비,학교
28901,37.59681292543692,126.99574685658837,성북동다이아몬드갤러리,경보 및 피난설비,전시장
30169,37.51613923175421,127.03657653314129,시너지정형외과병원,경보 및 피난설비,종합병원
20473,37.55977770045081,126.80818731137579,뉴티파니관광호텔,경보 및 피난설비,일반숙박시설
30200,37.58303409574489,126.9065749045865,시루뫼공원,경보 및 피난설비,화장실
20603,37.47167750229508,127.0525939550434,능인종합사회복지관,경보 및 피난설비,복지시설
42822,37.527248,127.11768799999999,올림픽회관 화장실,경보 및 피난설비,화장실
28864,37.60497407683325,127.04636840312651,성북구보훈회관,경보 및 피난설비,복지시설
22969,37.54854693254492,126.87818239805556,리버파크,경보 및 피난설비,일반숙박시설
30049,37.541063363302115,127.07086006197616,스타시티 영존,경보 및 피난설비,영화관/공연장
29930,37.54547273221996,126.96507482960452,숙명여자대학교 우체국,경보 및 피난설비,우체국
29445,37.610260464151175,127.08092846145873,소망어린이공원,경보 및 피난설비,공원
17593,37.557338443456544,127.15173757426365,고덕1동 주민센터,경보 및 피난설비,지역자치센터
17738,37.623590150996215,127.0775446131323,공릉동근린공원,경보 및 피난설비,공원
29942,37.534280205056426,127.00387848598398,순천향대학교병원,경보 및 피난설비,종합병원
17736,37.54222951467874,126.95548998908842,공덕동자치회관,경보 및 피난설비,지역자치센터
28830,37.655929913212475,127.06913320420664,성민복지관,경보 및 피난설비,복지시설
28366,37.49303927737396,127.00744512961408,서초동 근생,경보 및 피난설비,영화관/공연장
42457,37.502635,127.12784099999999,삼전동주민센터 화장실,경보 및 피난설비,화장실
17823,37.52848843099618,126.9700198570212,과학체험공원,경보 및 피난설비,공원
29419,37.63795830027842,127.01558532723557,소귀골마을마당,경보 및 피난설비,공원
20484,37.51111311580585,127.0314119051569,뉴힐탑관광호텔,경보 및 피난설비,일반숙박시설
28330,37.495954175921334,127.01532960196822,서초4동노인정,경보 및 피난설비,지역자치센터
43231,37.4523731,126.89954080000001,시흥5동 주민센터 화장실,경보 및 피난설비,화장실
23121,37.54970612586629,126.84619567115324,마음자리,경보 및 피난설비,복지시설
42421,37.513884000000004,127.106397,송파2동주민센터 화장실,경보 및 피난설비,화장실
43214,37.45896629999999,126.89741609999999,시흥4동 주민센터 화장실,경보 및 피난설비,화장실
30007,37.508095268651935,127.06200242150429,슈페리어타워,경보 및 피난설비,전시장
43694,37.472947,126.8979,SK네트웍스㈜ 이가주유소 화장실,경보 및 피난설비,화장실
20543,37.53456093160179,126.95747226541201,늘푸른공원,경보 및 피난설비,공원
29366,37.5039344562304,127.0024111972472,센트럴시티,경보 및 피난설비,영화관/공연장
17465,37.586601870890895,127.01603202418772,경동고등학교,경보 및 피난설비,학교
43200,37.4402328,126.89704809999999,시흥3동 주민센터 화장실,경보 및 피난설비,화장실
42779,37.50078,127.131782,올림픽공원-수영경기장 화장실,경보 및 피난설비,화장실
17836,37.55466853656621,126.93559597865871,관광숙박시설,경보 및 피난설비,일반숙박시설
42839,37.502331,127.12300400000001,선수촌올림픽스포츠센타 화장실,경보 및 피난설비,화장실
22962,37.51244418315047,127.02658499686096,리바트 스타일 샵,경보 및 피난설비,전시장
24223,37.54578286645106,127.12507660030292,바고관광호텔,경보 및 피난설비,일반숙박시설
30835,37.5589747524222,126.94145945501766,신촌민자역사(메가박스),경보 및 피난설비,영화관/공연장
15719,37.57214892697915,126.97779042950377,KT광화문빌딩,경보 및 피난설비,전시장
39450,37.502194,126.839656,잦절약수터 입구 화장실,경보 및 피난설비,화장실
35336,37.48372831894103,127.02162709052679,조하네스빌딩,경보 및 피난설비,학교
35318,37.473729157922655,126.91754583975374,조인트 병원,경보 및 피난설비,종합병원
39467,37.485145,126.847953,개웅산공원 화장실,경보 및 피난설비,화장실
39493,37.491017,126.863285,목감교 화장실,경보 및 피난설비,화장실
21370,37.532340459462816,127.06676977458929,더클래식544 노유자시설동,경보 및 피난설비,일반숙박시설
39526,37.495033,126.87102900000001,구일역제방앞 화장실,경보 및 피난설비,화장실
16390,37.50035116792125,127.11016788375956,가락1동주민센터,경보 및 피난설비,지역자치센터
35160,37.653354488328986,127.03242816111988,정의여자고등학교,경보 및 피난설비,학교
15681,37.48223033295346,127.01273992010954,KH바텍사옥,경보 및 피난설비,영화관/공연장
16400,37.493852016172646,127.1187388692868,가락관광호텔,경보 및 피난설비,일반숙박시설
15678,37.55785463072355,126.84889969671976,KGIT강서센터(한독미디어),경보 및 피난설비,학교
39574,37.500023999999996,126.86924499999999,동양미래대학옆제방 화장실,경보 및 피난설비,화장실
35068,37.609307840329926,127.00476123686786,정릉종합사회복지관,경보 및 피난설비,복지시설
16420,37.550762417383105,126.97550629168234,가브리엘의집,경보 및 피난설비,복지시설
15649,37.518711488257054,126.92941898842821,KBS방송국 서울별관,경보 및 피난설비,영화관/공연장
39659,37.493255,126.819401,온수체육공원 화장실,경보 및 피난설비,화장실
34998,37.53501987989932,126.97422161707392,전쟁기념관(전시장),경보 및 피난설비,전시장
39434,37.50300900000001,126.85281100000002,고척근린공원 소공원 화장실,경보 및 피난설비,화장실
35387,37.57257143054396,127.01718817657421,종로 산업정보학교,경보 및 피난설비,학교
16371,37.478617405851686,127.11910819954092,가든5  (Tool관이마트),경보 및 피난설비,영화관/공연장
35438,37.50117824142917,127.02556317947338,주류성빌딩,경보 및 피난설비,종합병원
36037,37.64073859964714,127.03938852120892,창동창작스튜디오,경보 및 피난설비,전시장
35939,37.64098042526975,127.02481335350059,참사랑너나울주간센터,경보 및 피난설비,복지시설
39135,37.56787280634384,126.85103011124257,허준박물관,경보 및 피난설비,전시장
35870,37.6399473837023,126.92085216925652,진관지구대 ,경보 및 피난설비,경찰서
39211,37.49476531661165,126.98886371146713,현대크리닉빌딩,경보 및 피난설비,종합병원
35764,37.59501969440208,127.07489247448136,중화문화복지센터,경보 및 피난설비,복지시설
21427,37.48334686792139,127.04510821827135,도곡까치공원,경보 및 피난설비,공원
35752,37.60116122731628,127.07981335683844,중화1치안센터,경보 및 피난설비,경찰서
21883,37.58497031965818,127.00309764554886,동성중학교 ,경보 및 피난설비,학교
22016,37.49312014186384,126.97687755566365,동작이수종합사회복지관,경보 및 피난설비,복지시설
35693,37.50472130990483,126.9522279373572,중앙대우체국,경보 및 피난설비,우체국
35669,37.56819514178093,126.91425431702145,중소기업글로벌 지원센터 ,경보 및 피난설비,전시장
35657,37.60495358417453,127.10995957035955,중랑캠핑숲,경보 및 피난설비,공원
35637,37.58843333651904,127.07784326623634,중랑노인종합복지관,경보 및 피난설비,복지시설
35613,37.61735834591804,127.08366362562721,중랑구립직업재활센터,경보 및 피난설비,복지시설
35610,37.5872299258896,127.08767416205816,중랑구립 면목정보도서관,경보 및 피난설비,도서관
35548,37.65609213052153,127.07496737302755,중계종합사회복지관,경보 및 피난설비,복지시설
35487,37.594702550347584,126.96320387574762,주식회사 석파문화원,경보 및 피난설비,전시장
16349,37.54459718097464,127.13799260844502,가나안의집,경보 및 피난설비,복지시설
35447,37.55047667562073,127.12713048064495,"주몽 학교,주몽재활원",경보 및 피난설비,복지시설
35675,37.58378759257659,126.98747375436035,중앙고등학교,경보 및 피난설비,학교
15854,37.47887940692706,126.89095804457516,MIND관광호텔,경보 및 피난설비,일반숙박시설
39688,37.489768,126.88708799999999,남구로시장 화장실,경보 및 피난설비,화장실
39714,37.505251,126.84421100000002,참새소공원 화장실,경보 및 피난설비,화장실
34597,37.51077165701114,127.12346181951759,임금샘어린이공원,경보 및 피난설비,공원
34489,37.6438657673206,127.0099211930666,인수중학교,경보 및 피난설비,학교
34477,37.64223676387937,127.01020197255384,인수마을마당,경보 및 피난설비,공원
22081,37.64451397788511,127.07292525022612,동천의집,경보 및 피난설비,복지시설
40016,37.493833,127.12048200000001,올림픽공원-프라자A동 화장실,경보 및 피난설비,화장실
16525,37.58490178849815,127.004768739433,가톨릭대학교 성신교정,경보 및 피난설비,학교
34441,37.56444557044906,126.97030426691003,이화학원,경보 및 피난설비,학교
40030,37.514516,127.108802,올림픽공원-프라자C동 화장실,경보 및 피난설비,화장실
34424,37.5611486017934,126.9427751922987,이화여자대학교사범대학 부속초등학교,경보 및 피난설비,학교
40055,37.507065000000004,127.07988600000002,청소년 수련관 화장실,경보 및 피난설비,화장실
34371,37.53840634216576,126.98903373474093,이태원어린이공원(이태원중부경로당 옆),경보 및 피난설비,공원
34368,37.535365060450786,126.9982304434218,이태원 IP호텔,경보 및 피난설비,일반숙박시설
40070,37.509334,127.085974,서울영어마을풍납캠프 화장실,경보 및 피난설비,화장실
34352,37.55329404008532,126.85051591880837,이지호텔,경보 및 피난설비,일반숙박시설
40085,37.538261999999996,127.12283799999999,송파우체국 화장실,경보 및 피난설비,화장실
34334,37.55643657115681,126.93952841440263,이젠호텔,경보 및 피난설비,일반숙박시설
16548,37.57397635736325,127.04631295265764,간데메공원,경보 및 피난설비,공원
34313,37.609349229484025,126.97852232505257,이응노미술관,경보 및 피난설비,전시장
40100,37.512456,127.10506399999998,송파나루(더다이닝) 화장실 화장실,경보 및 피난설비,화장실
34631,37.53289759581719,127.07523308742977,자양 3세대 종합복지센터,경보 및 피난설비,복지시설
34672,37.65904586564025,127.05069043467054,자운고등학교,경보 및 피난설비,학교
16492,37.64872330040943,127.06696901126035,가재울근린공원,경보 및 피난설비,공원
34698,37.62334744599632,126.9261393807284,작은예수의집,경보 및 피난설비,복지시설
34929,37.48696457375932,127.13243656178442,장지동주민센터,경보 및 피난설비,지역자치센터
39736,37.506931,126.856076,덕의근린공원 화장실,경보 및 피난설비,화장실
39745,37.571378,127.040233,마장축산물평면주차장 화장실,경보 및 피난설비,화장실
16446,37.52006344444976,127.10408838763014,가야금어린이공원,경보 및 피난설비,공원
34879,37.43525843377429,126.90641540220813,장애인주간보호시설,경보 및 피난설비,복지시설
34866,37.48987837592232,126.88655929809906,장애인전산교육장,경보 및 피난설비,복지시설
34843,37.550367907036325,127.12435547520664,장애인사랑의쉼터의집,경보 및 피난설비,복지시설
16458,37.54083991216595,126.97232319812241,가야호텔,경보 및 피난설비,일반숙박시설
34814,37.567951852620475,127.06617220033043,장안종합복지관,경보 및 피난설비,복지시설
39702,37.489290999999994,126.87251100000002,뱀쇠다리 옆 화장실,경보 및 피난설비,화장실
34806,37.564234393309405,127.05559275296908,장안빌딩,경보 및 피난설비,종합병원
15597,37.56177185763962,127.05770517993437,JJ호텔,경보 및 피난설비,일반숙박시설
34782,37.64650676772303,127.01612194295973,장미원공원,경보 및 피난설비,공원
34774,37.506218269922854,127.08417731646028,잠실근린공원,경보 및 피난설비,공원
22039,37.505714122452034,126.93341680787148,동작종합사회복지관,경보 및 피난설비,복지시설
34771,37.50492160483204,127.08804830224688,잠실관광호텔,경보 및 피난설비,일반숙박시설
34760,37.52014216775801,127.11256344446915,잠실4동주민센터 개방화장실,경보 및 피난설비,지역자치센터
34746,37.51189140814292,127.08854058925074,잠실2동주민센터,경보 및 피난설비,지역자치센터
21326,37.51856901180078,127.01808524804515,더리버사이드호텔,경보 및 피난설비,일반숙박시설
34713,37.560388421927684,126.91865467935726,잔디네집,경보 및 피난설비,복지시설
39814,37.56161138,127.0269475,성삼공원 화장실,경보 및 피난설비,화장실
16552,37.6664944546174,127.052345755763,갈말근린공원,경보 및 피난설비,공원
36060,37.48985843949111,126.84111705028654,창신 모자원,경보 및 피난설비,복지시설
39061,37.558221571800146,127.0293492031456,행당제2동주민센터,경보 및 피난설비,지역자치센터
37502,37.60637367867771,126.96836687860072,평창동주민센터,경보 및 피난설비,지역자치센터
21557,37.574607792788406,126.9556110960777,독립 공원,경보 및 피난설비,공원
37406,37.560758100743215,126.98693886745892,퍼시픽호텔,경보 및 피난설비,일반숙박시설
37382,37.50144407512777,127.00247444856949,팰리스호털,경보 및 피난설비,일반숙박시설
21686,37.58402116625186,127.03419594182556,동대문종합사회복지관,경보 및 피난설비,복지시설
21555,37.56236202656917,126.9686028093585,독도사진전,경보 및 피난설비,전시장
37347,37.50873196084404,127.0642831000689,파크하얏트서울,경보 및 피난설비,일반숙박시설
37321,37.55224124081821,126.86831262426232,파인블루빌딩,경보 및 피난설비,종합병원
38334,37.57597180886742,126.93582215721442,한국고려인삼,경보 및 피난설비,전시장
21545,37.598431256692855,127.0650849179197,독구말어린이공원,경보 및 피난설비,공원
37260,37.558616359490046,126.97999462999336,파레스호텔,경보 및 피난설비,일반숙박시설
21542,37.48567077531922,127.04689156728806,독골 근린공원,경보 및 피난설비,공원
38393,37.55111217993112,127.16924768085251,한국 시각장애인 복지관,경보 및 피난설비,복지시설
37220,37.48214814752219,126.89893099585429,티타운빌딩,경보 및 피난설비,종합병원
37217,37.550103350883774,127.09027872272486,티지아이에프빌딩,경보 및 피난설비,학교
37174,37.484288554654405,127.04231379470578,튼튼영어(유니북스 사옥),경보 및 피난설비,영화관/공연장
38436,37.59829802897999,127.05794173534115,한국외국어대학교우체국,경보 및 피난설비,우체국
37155,37.53755785394993,127.13860872869637,투비인관광호텔,경보 및 피난설비,일반숙박시설
38454,37.51976434842465,126.93024150610664,한국잡지협회,경보 및 피난설비,전시장
37508,37.646177365623295,127.06965899136732,평화종합사회복지관,경보 및 피난설비,복지시설
16049,37.5269276919481,127.04240574538971,THE TRINITY PLACE,경보 및 피난설비,전시장
21664,37.57804844288409,127.07513358626969,동국대학교사범대학부속고등학교,경보 및 피난설비,학교
37556,37.50519098185857,126.89740705444599,포스코메디칼,경보 및 피난설비,종합병원
37889,37.631943035351576,127.06754758597204,하계2 치안센터,경보 및 피난설비,경찰서
21626,37.54526029862822,127.13800740968418,돌봄의 집,경보 및 피난설비,복지시설
37858,37.563776537733396,126.94409066661801,필름포럼(빌딩),경보 및 피난설비,영화관/공연장
38007,37.48496126942052,127.03509598049035,하늘빌딩,경보 및 피난설비,종합병원
37820,37.57102624835606,126.99122950203235,피카다리플러스,경보 및 피난설비,영화관/공연장
37782,37.63835692387861,127.02401032407205,플라타너스공원,경보 및 피난설비,공원
38056,37.49255430492796,127.07513380267449,하상장애인복지관,경보 및 피난설비,복지시설
37770,37.59332656717455,127.01817579145664,플라망스타워,경보 및 피난설비,종합병원
16083,37.55634170573935,126.93730121307377,VERTIGO빌딩,경보 및 피난설비,영화관/공연장
38474,37.51990580247737,127.13200155968521,한국체육대학교,경보 및 피난설비,학교
38083,37.52455843520887,126.96417956815701,하이원빌리지(원불교수도원),경보 및 피난설비,종합병원
38095,37.56126607811881,126.98536328312971,하이해리엇,경보 및 피난설비,영화관/공연장
37698,37.48686020806428,127.0217139264024,프렌드호텔,경보 및 피난설비,일반숙박시설
38123,37.496937004755466,127.12575954295937,하트하트재단사옥,경보 및 피난설비,복지시설
37685,37.565633224291844,126.97943133739678,프레지던트호텔,경보 및 피난설비,일반숙박시설
37672,37.56258217570571,126.96977530472992,프레이저플레이스센트럴서울,경보 및 피난설비,일반숙박시설
38147,37.56249450458611,127.08943800174808,학교법인대원학원인정관,경보 및 피난설비,학교
37646,37.647252268628186,127.01952147940388,프란체스코의집,경보 및 피난설비,복지시설
38161,37.59871321499028,126.91883492175856,학교법인 신진학원,경보 및 피난설비,학교
38164,37.5116695500475,127.03877768053007,학동어린이공원,경보 및 피난설비,공원
37719,37.49484726568385,127.0186268424658,프로비스타,경보 및 피난설비,일반숙박시설
21840,37.54359263974918,127.07206642939407,동서빌딩,경보 및 피난설비,종합병원
38502,37.53808968343471,126.9980674471848,한남동고미술센터,경보 및 피난설비,전시장
21524,37.52394942336893,127.03560293921466,도산공원,경보 및 피난설비,공원
16247,37.5836476795585,127.00231413577556,㈜에니웍스,경보 및 피난설비,영화관/공연장
38863,37.631313046312435,127.07244106966206,한천증학교,경보 및 피난설비,학교
21800,37.55113478901839,127.12843980626549,동부센트럴요양병원,경보 및 피난설비,종합병원
36372,37.509660515785015,127.04336867118721,청음회관,경보 및 피난설비,복지시설
36309,37.477511144617424,127.07501925053705,청소년 체력단련장,경보 및 피난설비,공원
36287,37.640738169163775,127.04065751021268,청소년문화회관,경보 및 피난설비,복지시설
36272,37.65421670084514,127.02907870554549,청소년문화의집,경보 및 피난설비,복지시설
38954,37.49405188190481,127.07775877337164,해마을주간보호센터,경보 및 피난설비,복지시설
16267,37.51881599952303,126.90387685002165,㈜연합충무,경보 및 피난설비,종합병원
36248,37.64821330621304,127.02583105275372,청소년랜드,경보 및 피난설비,복지시설
36236,37.48134296199308,126.94613750493556,청룡동자치회관,경보 및 피난설비,지역자치센터
36223,37.525175465261455,127.0442555211697,청담은행나무공원,경보 및 피난설비,공원
36207,37.571266444339074,127.0350413529804,청계문화회관,경보 및 피난설비,전시장
36183,37.53788382705582,127.12758431471909,천호3 치안센터,경보 및 피난설비,경찰서
36171,37.540092549733636,127.12807236042023,천호3동공원,경보 및 피난설비,공원
39013,37.472323015777796,126.94062271896036,해태어린이공원,경보 및 피난설비,공원
39024,37.54071046953972,126.97364032450923,해태제과식품㈜,경보 및 피난설비,전시장
39046,37.57228192048,127.06950860418002,햇살요양병원,경보 및 피난설비,종합병원
21456,37.67947579559954,127.0433993173795,도봉1파출소,경보 및 피난설비,경찰서
21470,37.66967554857821,127.04653557712341,도봉2주민센터<도봉서원복지관>,경보 및 피난설비,지역자치센터
36452,37.58346975665444,127.04495118675676,청회파출소,경보 및 피난설비,경찰서
36488,37.63374019856265,127.05608859660042,초안산근린공원,경보 및 피난설비,공원
36520,37.4813462694,126.91497323629999,최병만,경보 및 피난설비,일반숙박시설
21730,37.61441833701418,126.92282282198887,동명여자정보산업고등학교,경보 및 피난설비,학교
38533,37.62282791734698,127.06882614620865,한내근린공원,경보 및 피난설비,공원
36984,37.53809651518357,127.12415405824757,태승빌딩,경보 및 피난설비,종합병원
36916,37.47898217649271,127.1029550679948,탄현기념박물관,경보 및 피난설비,전시장
38585,37.503533892342475,127.05944722750549,한맘플러스재활의학과의원,경보 및 피난설비,종합병원
36884,37.517233707169474,126.90371599319953,타임스퀘어(CGV영등포),경보 및 피난설비,영화관/공연장
38619,37.62948895668255,127.0161681118612,한빛효정,경보 및 피난설비,복지시설
36813,37.496906611258304,127.14297553336573,큰바위어린이공원,경보 및 피난설비,공원
36801,37.62476379989109,127.01875436623024,큰마을마당,경보 및 피난설비,공원
37040,37.4848286534059,127.09339764688215,태화기독교사회복지관,경보 및 피난설비,복지시설
21756,37.571258848183824,126.91984274888206,동방사회복지회관(별관),경보 및 피난설비,복지시설
21495,37.66915401031681,127.04384668924344,도봉병원<건강검진센터>,경보 및 피난설비,종합병원
38697,37.51542719175843,127.1208000257984,한성백제박물관,경보 및 피난설비,전시장
36690,37.53422281397543,127.13351572798048,코리아관광호텔,경보 및 피난설비,일반숙박시설
36650,37.494103905988936,127.11912826555708,캘리포니아관광호텔,경보 및 피난설비,일반숙박시설
38738,37.588390794838006,127.07676533713243,한신어린이공원,경보 및 피난설비,공원
36635,37.554543459623694,126.85245545289158,칼튼호텔,경보 및 피난설비,일반숙박시설
38759,37.554503908803866,127.04661325410736,한양대병원 ,경보 및 피난설비,종합병원
36561,37.47400672167875,127.05027579224868,충현복지관,경보 및 피난설비,복지시설
36531,37.64256188229099,127.0766578866382,충숙근린공원,경보 및 피난설비,공원
36773,37.53174986838762,126.99041046191596,크라운관광호텔,경보 및 피난설비,일반숙박시설
42036,37.5031984473,126.96769570299999,비계(현충) 화장실,경보 및 피난설비,화장실
22113,37.61982824130036,127.05759144242985,동해문화예술관,경보 및 피난설비,영화관/공연장
15481,37.53024664616337,127.12102303957626,GMF빌딩,경보 및 피난설비,종합병원
22461,37.56590167759849,127.00280256392492,라마다호텔,경보 및 피난설비,일반숙박시설
41325,37.51459000000001,127.114434,잠실지하 상가 화장실,경보 및 피난설비,화장실
20991,37.54055357354346,127.12497734386659,대우베네스티,경보 및 피난설비,종합병원
41342,37.510961,127.12395500000001,갤러리아팰리스 화장실,경보 및 피난설비,화장실
17050,37.642544972468045,127.02263387878992,강북우리들병원,경보 및 피난설비,종합병원
41363,37.513279,127.094223,롯데마트 송파점 화장실,경보 및 피난설비,화장실
41378,37.514129,127.088424,삼성홈플러스 화장실,경보 및 피난설비,화장실
17064,37.61636736511229,127.03194543709392,강북장애인복지관,경보 및 피난설비,복지시설
31979,37.615183661906784,126.91424569590326,에버그린하우스,경보 및 피난설비,복지시설
41392,37.506146,127.084383,롯데백화점 화장실,경보 및 피난설비,화장실
31955,37.5011788522105,126.84124687039156,에덴장애인종합복지관,경보 및 피난설비,복지시설
31946,37.511864331806,127.02476602232497,에넥스 빌딩,경보 및 피난설비,전시장
41425,37.490097,127.124133,가든파이브(툴) 화장실,경보 및 피난설비,화장실
22502,37.57883613347313,126.96978684910826,라파엘의집,경보 및 피난설비,복지시설
17084,37.62800238404007,127.02595546516173,강북제일교회사회복지시설,경보 및 피난설비,복지시설
31911,37.50490856937278,127.02479086770352,어반하이브,경보 및 피난설비,종합병원
41451,37.495961,127.149872,서울주유소 화장실,경보 및 피난설비,화장실
20965,37.5034387377086,126.90520846707676,대영중학교,경보 및 피난설비,학교
41479,37.510334,127.101129,트레져오일몽촌주유소 화장실,경보 및 피난설비,화장실
41308,37.50293900000001,127.12808400000002,장미상가 B 화장실,경보 및 피난설비,화장실
32138,37.51161024945213,126.9272268735857,여성프라자,경보 및 피난설비,복지시설
32154,37.53009488041634,126.92667492138085,여의도공원,경보 및 피난설비,공원
32157,37.49759303909439,127.03626893858394,역삼개나리공원,경보 및 피난설비,공원
32397,37.55700738623271,126.86982079088516,염창근린공원,경보 및 피난설비,공원
41140,37.475386,127.12756999999999,아이티벤처타워 화장실,경보 및 피난설비,화장실
16967,37.61633878840478,127.03098946337694,강북구립보호작업장,경보 및 피난설비,복지시설
41155,37.506586,127.08099399999999,파크인수빌딩 화장실,경보 및 피난설비,화장실
32371,37.51036082715669,126.84315021326874,열방교회사회복지관,경보 및 피난설비,복지시설
32339,37.570482008897095,126.92226597746088,열린여성센터,경보 및 피난설비,복지시설
32336,37.5677496836085,126.92149911176304,연희어린이집,경보 및 피난설비,공원
41207,37.495332,127.14081200000001,서울병원 화장실,경보 및 피난설비,화장실
32282,37.561407126853716,126.9408237307159,연세의료원 의과대학교수연구동,경보 및 피난설비,학교
31826,37.51651994177261,126.86333956388799,양천구민회관,경보 및 피난설비,영화관/공연장
32273,37.60615009391692,126.9333953356898,연세에덴요양병원,경보 및 피난설비,종합병원
32243,37.530967347037155,126.85343867486813,연세대학교강서지역자활센타,경보 및 피난설비,복지시설
41247,37.50277,127.09253799999999,힘찬병원 화장실,경보 및 피난설비,화장실
32226,37.56593156944718,126.8520707894286,연세가양4종합복지관,경보 및 피난설비,복지시설
41261,37.503592,127.103652,잠실중앙상가 화장실,경보 및 피난설비,화장실
32180,37.495344877546394,127.04460430020431,역삼 장미공원,경보 및 피난설비,공원
32177,37.49385683959179,127.03220980874256,역삼 무궁화공원,경보 및 피난설비,공원
22448,37.51108686132628,127.04561352618065,라마다 서울 호텔,경보 및 피난설비,일반숙박시설
41291,37.506276,127.109292,장미상가 A 화장실,경보 및 피난설비,화장실
32161,37.5025141908175,127.03039046167349,역삼공원,경보 및 피난설비,공원
17006,37.64098942633013,127.01387735123377,강북문화예술화관,경보 및 피난설비,영화관/공연장
22415,37.52975098183508,126.86087624972069,따스한봄날처럼,경보 및 피난설비,종합병원
31817,37.51801388266084,126.86816466108671,양천공원 화장실,경보 및 피난설비,화장실
31791,37.646357921571386,127.074953055972,양지근린공원,경보 및 피난설비,공원
20899,37.50992549768564,126.93042710651699,대방종합사회복지관,경보 및 피난설비,복지시설
31304,37.54920005176802,126.91638545592916,아름뜰(홀트아동복지회),경보 및 피난설비,복지시설
31275,37.63248648305026,127.02206437733852,아름다운교회사랑의집,경보 및 피난설비,복지시설
31251,37.511366314564405,127.10880416970615,아랫말어린이공원,경보 및 피난설비,공원
31233,37.573098060366355,126.98623487228724,아라아트센터,경보 및 피난설비,전시장
17253,37.48495875558483,127.05940537038772,개포고등학교,경보 및 피난설비,학교
17256,37.48370379491757,127.0608923126568,개포까치공원,경보 및 피난설비,공원
31140,37.52289661859363,127.03701422852512,씨네시티빌딩,경보 및 피난설비,영화관/공연장
17259,37.489707670707546,127.06829223105116,개포동공원,경보 및 피난설비,공원
31099,37.568604335993854,126.99074984658421,써튼호텔,경보 및 피난설비,일반숙박시설
20844,37.57750352364477,126.97336472019478,대림미술관,경보 및 피난설비,전시장
30923,37.48294075103726,126.94110275358429,실로암시각장애인복지관,경보 및 피난설비,복지시설
22755,37.56596788090347,126.80077792802679,롯데몰,경보 및 피난설비,영화관/공연장
20827,37.498315052716244,126.89803617893844,대림3파출소,경보 및 피난설비,경찰서
30862,37.51328142176133,126.85550471374307,신트리공원 화장실,경보 및 피난설비,화장실
41999,37.492335,127.156625,송파어린이영어작은도서관 화장실,경보 및 피난설비,화장실
17309,37.5276831195916,127.03579024914268,갤러리 현대,경보 및 피난설비,전시장
42010,37.489731,127.111309,송파여성문화회관 화장실 화장실,경보 및 피난설비,화장실
22772,37.65527828182756,127.06139025733995,롯데백화점,경보 및 피난설비,영화관/공연장
31343,37.56279031710285,127.03352071086559,아모렉스 관광호텔,경보 및 피난설비,일반숙박시설
41732,37.517821999999995,127.10181899999999,대성주유소 화장실,경보 및 피난설비,화장실
41722,37.520051,127.10381000000001,송파주유소(셀프) 화장실,경보 및 피난설비,화장실
22607,37.51436993508075,127.02053196324695,렉스관광호텔,경보 및 피난설비,일반숙박시설
31777,37.45957862932941,126.9329784934486,약수암어린이공원,경보 및 피난설비,공원
22538,37.53029008470089,126.92196830132187,랙싱턴호텔,경보 및 피난설비,일반숙박시설
31758,37.5544297915077,127.01003607699649,약수JK빌딩,경보 및 피난설비,종합병원
31698,37.5311762106343,127.03301328155595,압구정고등학교,경보 및 피난설비,학교
41565,37.50763,127.109816,인광주유소 화장실,경보 및 피난설비,화장실
31667,37.52508966110562,127.03072089909469,압구정CGV,경보 및 피난설비,영화관/공연장
17142,37.53546719917196,126.84109727614859,강서구보건소 화곡보건분소,경보 및 피난설비,보건소
31645,37.557968244483426,127.13144846416485,암사 재활원,경보 및 피난설비,복지시설
31624,37.55147973127575,127.13264116774765,암사1동 주민센터,경보 및 피난설비,지역자치센터
31802,37.59020589735507,127.08888690584149,양지어린이공원(화장실),경보 및 피난설비,공원
41611,37.502767999999996,127.097991,올림픽주유소(셀프) 화장실,경보 및 피난설비,화장실
22561,37.50687183294708,127.10099375060535,레이크관광호텔,경보 및 피난설비,일반숙박시설
41633,37.498954,127.117173,완불주유소 화장실,경보 및 피난설비,화장실
31550,37.51638251262288,127.1054813674752,안골어린이공원,경보 및 피난설비,공원
41656,37.511283,127.097926,남성대주유소 화장실,경보 및 피난설비,화장실
31517,37.55840541474453,126.92853499410305,아트레온,경보 및 피난설비,영화관/공연장
31501,37.566496338001926,127.00267128571907,아카시아호텔,경보 및 피난설비,일반숙박시설
41665,37.512386,127.099356,진양주유소 화장실,경보 및 피난설비,화장실
31471,37.55175663999483,127.10037527905388,아차산생태공원,경보 및 피난설비,화장실
41685,37.516252,127.103021,우리주유소 화장실,경보 및 피난설비,화장실
31587,37.516824834539435,126.90618242477595,안세빌딩,경보 및 피난설비,종합병원
40123,37.512144,127.08300700000001,한국조세연구원빌딩 화장실,경보 및 피난설비,화장실
41123,37.502383,127.094292,우진빌딩 화장실,경보 및 피난설비,화장실
32520,37.480484024671945,127.03841785614642,영산문화재단,경보 및 피난설비,영화관/공연장
40409,37.494547,127.120977,가락공원1(관리동) 화장실 화장실,경보 및 피난설비,화장실
33642,37.60680802070691,126.90935833499806,위드 자립생활센터,경보 및 피난설비,복지시설
16685,37.502391813696256,127.00586275297856,강남성모병원 ,경보 및 피난설비,종합병원
33596,37.564483681788396,126.98018321530917,웨스틴조선호텔 서울점,경보 및 피난설비,일반숙박시설
21193,37.582058349057284,127.00041662615543,대학로스타시티빌딩,경보 및 피난설비,영화관/공연장
16708,37.488992130621185,127.10528001613348,강남스포츠문화센터,경보 및 피난설비,보건소
33511,37.60890914248347,127.03751435901276,월곡종합사회복지관,경보 및 피난설비,복지시설
33457,37.6504338787737,127.06275967540695,원터근린공원,경보 및 피난설비,공원
33450,37.48628534229936,126.94119962866276,원익빌딩,경보 및 피난설비,종합병원
15296,37.5297699998206,126.96474274881271,CGV용산 11,경보 및 피난설비,영화관/공연장
21169,37.583456691546466,126.99984149795456,대학로CGV,경보 및 피난설비,영화관/공연장
22250,37.63985664136296,127.06866963450676,등나무근린공원 2공영주차장,경보 및 피난설비,공원
16735,37.49471831292079,127.0834994877244,강남장애인복지관,경보 및 피난설비,복지시설
15282,37.5635262478331,126.89843632998341,CGV상암14,경보 및 피난설비,영화관/공연장
22255,37.59773932901107,127.09660506522677,등나무어린이공원(공중화장실),경보 및 피난설비,공원
22256,37.559235080793684,126.85474147212344,등서어린이공원,경보 및 피난설비,공원
21162,37.50167072003654,127.05154739613356,대치은행나무공원,경보 및 피난설비,공원
21159,37.49982598251991,127.05818221077992,대치목련공원,경보 및 피난설비,공원
22267,37.565385474725474,126.84225618100642,"등촌1,2단지 복지관",경보 및 피난설비,복지시설
15347,37.55829388925655,126.94204851146051,Ditto HOTEL,경보 및 피난설비,일반숙박시설
22210,37.52945177020552,127.1391910749382,둔촌2파출소,경보 및 피난설비,경찰서
40384,37.520247,127.115553,송이공원 화장실 화장실,경보 및 피난설비,화장실
40366,37.508540999999994,127.076715,방이공원 화장실 화장실,경보 및 피난설비,화장실
16561,37.66682183816853,127.06103706879075,갈울근린공원,경보 및 피난설비,공원
16570,37.5457743450545,126.97482444506555,갈월동 종합사회복지관,경보 및 피난설비,복지시설
34102,37.54865975587134,127.03101574091205,응봉산인공암벽공원,경보 및 피난설비,화장실
40186,37.508236,127.10388700000001,거여119안전센터 화장실,경보 및 피난설비,화장실
34095,37.63655849704024,127.0695910964754,을지병원,경보 및 피난설비,종합병원
22141,37.509919056575626,127.10710097679257,동호수공원,경보 및 피난설비,공원
34048,37.47602901200653,127.04926870988001,은행나무공원,경보 및 피난설비,공원
15429,37.57312329979733,126.98633448373072,FIRASER SUITES,경보 및 피난설비,일반숙박시설
16604,37.56791739474362,126.9618904430341,감리교신학대학교,경보 및 피난설비,학교
15261,37.50115888382457,126.88277403171672,CGV구로14,경보 및 피난설비,영화관/공연장
16608,37.477704626550576,126.91785350660135,갑을복지재단 재활센터,경보 및 피난설비,복지시설
33905,37.52565466934934,127.03373034442323,윤당빌딩,경보 및 피난설비,영화관/공연장
33896,37.53527090261717,127.08318714986248,윤강,경보 및 피난설비,종합병원
40287,37.511469,127.08168899999998,풍납백제문화공원 화장실,경보 및 피난설비,화장실
33854,37.59257350035878,127.01708860457896,유타몰,경보 및 피난설비,영화관/공연장
40320,37.512572,127.10819,KT가락지점 화장실,경보 및 피난설비,화장실
33785,37.559989927598075,126.853132848803,유석초등학교 행정실,경보 및 피난설비,학교
33747,37.604472090632704,127.09591616643242,유린원광종합사회복지관,경보 및 피난설비,복지시설
16647,37.48284587857757,127.07937075395105,강남구 직업재활센터,경보 및 피난설비,복지시설
15370,37.474683916185064,127.05112639279658,EBM 통합의학,경보 및 피난설비,종합병원
40264,37.516312,127.10041299999999,아시아선수촌A동상가 화장실,경보 및 피난설비,화장실
41096,37.499311999999996,127.097053,민성빌딩 화장실,경보 및 피난설비,화장실
33311,37.65745218883934,127.01391214662264,우이새길요양병원,경보 및 피난설비,종합병원
33298,37.639778112614756,127.01687280853615,우이동길마당,경보 및 피난설비,공원
15172,37.5201737570732,127.03085010278649,ACE에비뉴빌딩(ACE침대 서울지점),경보 및 피난설비,전시장
32870,37.62542245839128,127.0857887210488,온곡중학교,경보 및 피난설비,학교
40915,37.53595,127.116069,동성빌딩 화장실,경보 및 피난설비,화장실
32855,37.64108882242771,127.02344921966407,오현어린이공원,경보 및 피난설비,공원
40935,37.527741999999996,127.113877,세기빌딩 화장실,경보 및 피난설비,화장실
43928,37.447970700000006,126.885065,시흥빌딩 화장실,경보 및 피난설비,화장실
32807,37.51460758686387,127.10742438901728,오동나무어린이공원,경보 및 피난설비,공원
16893,37.5381321156947,127.12794228262275,강동미즈문화센터,경보 및 피난설비,종합병원
40954,37.491772999999995,127.15561000000001,삼성디지탈프라자 화장실,경보 및 피난설비,화장실
40970,37.50275,127.12838899999998,효창빌딩 화장실,경보 및 피난설비,화장실
21082,37.496054993762655,127.0788554998889,대진공원,경보 및 피난설비,공원
32756,37.527073608816046,126.87074619293999,예술인센터,경보 및 피난설비,영화관/공연장
21065,37.50199281973383,127.02524227413288,대준산업주식회사,경보 및 피난설비,종합병원
32625,37.62579105975489,127.0535859337882,영축산근린공원,경보 및 피난설비,공원
22366,37.55976671198128,126.80807868700708,디아망호텔,경보 및 피난설비,일반숙박시설
41048,37.522388,127.10296699999999,청호빌딩 화장실,경보 및 피난설비,화장실
32614,37.47888967619931,126.89432715056292,영진오피스,경보 및 피난설비,종합병원
41066,37.506227,127.131651,신우빌딩 화장실,경보 및 피난설비,화장실
41079,37.510861,127.11022700000001,세븐스타빌딩 화장실,경보 및 피난설비,화장실
32881,37.545987048372695,127.10407463168372,온달공원,경보 및 피난설비,화장실
16868,37.5351413199334,127.1461259743747,강동미르사랑 데이케어센터,경보 및 피난설비,복지시설
40884,37.492385,127.127344,현대드림밸리빌딩 화장실,경보 및 피난설비,화장실
32908,37.52034113915062,127.11551844445054,올림픽공원,경보 및 피난설비,영화관/공연장
15241,37.5284437241851,127.12535988866115,CGV,경보 및 피난설비,영화관/공연장
21145,37.50658339307788,127.0653262973692,대치동 KT&G,경보 및 피난설비,영화관/공연장
22282,37.56188161033503,126.80991135278586,등촌4종합사회복지관,경보 및 피난설비,복지시설
40705,37.477614,127.124945,산성 화장실 화장실,경보 및 피난설비,화장실
21136,37.49662165805773,127.05888084870466,대치까치공원,경보 및 피난설비,공원
33122,37.53342351659932,126.95186116423416,용산문화원,경보 및 피난설비,영화관/공연장
33111,37.53245265481936,126.99047825509771,용산구보건소,경보 및 피난설비,보건소
33098,37.538902625067685,126.96501453114469,용산경찰서 원효지구대,경보 및 피난설비,경찰서
33072,37.57335354193261,127.08912044129406,용마폭포공원 (화장실) ,경보 및 피난설비,공원
16764,37.49198231160321,127.07346872881212,강남종합사회복지관,경보 및 피난설비,복지시설
40778,37.485902,127.13243100000001,가윤빌딩 화장실,경보 및 피난설비,화장실
16827,37.55316900838627,127.1569620924066,강동경희대학교병원,경보 및 피난설비,종합병원
33043,37.56731516163026,127.04888958988006,용답꽃공원,경보 및 피난설비,화장실
33041,37.54288597286293,126.940349545978,용강동주민센터,경보 및 피난설비,지역자치센터
40800,37.493745000000004,127.144305,로데오 상점가-취약지역 화장실,경보 및 피난설비,화장실
40850,37.495843,127.124748,향군회관A동 화장실,경보 및 피난설비,화장실
21110,37.48393815160635,127.07899653234749,대청사회복지관(증축),경보 및 피난설비,복지시설
40862,37.4926707943,126.966637299,학수(현충) 화장실,경보 및 피난설비,화장실
22319,37.533296988508724,126.84608455617304,등촌근린공원,경보 및 피난설비,화장실
21106,37.493197765244496,127.08300024586443,대청공원,경보 및 피난설비,공원
33051,37.58700426419113,127.09518724840542,용마문화복지센터,경보 및 피난설비,복지시설
22336,37.559281293278154,126.84571422080973,등촌동 병원,경보 및 피난설비,종합병원
17228,37.492198733208255,127.14674787933008,개미어린이공원,경보 및 피난설비,공원
21602,37.458744833722704,126.8883921771924,독산1동주민센터분소,경보 및 피난설비,지역자치센터
26148,37.66026864925922,127.0697990878504,상계근린공원,경보 및 피난설비,공원
27032,37.56812375256784,127.03510779621979,서울동명초등학교,경보 및 피난설비,학교
20008,37.64763734319077,127.08038883650349,노원경찰서 중계본동치안센터,경보 및 피난설비,지역자치센터
18346,37.4831824420615,126.8988572415558,구로호텔,경보 및 피난설비,일반숙박시설
19669,37.48491068969199,126.92018383971613,남부어린이공원,경보 및 피난설비,공원
19131,37.55300419463702,127.02403723653543,금호1가보건분소,경보 및 피난설비,보건소
27620,37.51131204485852,126.8542145709001,서울신기초등학교,경보 및 피난설비,학교
24873,37.63517574719886,127.01778265292731,보등골공원,경보 및 피난설비,공원
27633,37.55002187199918,127.12440469294184,서울신암초등학교,경보 및 피난설비,학교
27020,37.57679472167039,127.07440328227543,서울동대문경찰서 장안2파출소,경보 및 피난설비,경찰서
23839,37.5235867227291,126.87577496500566,목동자생한방병원,경보 및 피난설비,종합병원
18656,37.534538240137095,127.09418371115775,구의공원,경보 및 피난설비,화장실
20354,37.60564519156108,126.90634278387111,누야하우스,경보 및 피난설비,복지시설
26191,37.668091017040965,127.07832536015448,상계종합복지관,경보 및 피난설비,복지시설
20018,37.65023585990375,127.08026925498872,노원문화예술회관,경보 및 피난설비,영화관/공연장
19141,37.54716865205317,127.0271586017403,금호4가동주민센터,경보 및 피난설비,지역자치센터
27647,37.63653907999417,127.0420827545972,서울신창초등학교,경보 및 피난설비,학교
26140,37.65795085156928,127.07637905148366,삿갓봉근린공원,경보 및 피난설비,공원
27600,37.64281777599706,127.05763637937977,서울 시립상이군경복지관,경보 및 피난설비,복지시설
26129,37.48132286429883,126.94959719986628,삼호빌딩,경보 및 피난설비,종합병원
24116,37.62491595687652,127.0128457928891,미아동주민센터,경보 및 피난설비,지역자치센터
27077,37.56438719118553,126.98586522226059,서울로얄호텔,경보 및 피난설비,영화관/공연장
27544,37.64244347787962,127.05658008579952,서울시립 뇌성마비종합복지관,경보 및 피난설비,복지시설
18121,37.54651303783713,127.08644506456685,광진타워빌딩,경보 및 피난설비,종합병원
26058,37.5879487800829,127.05513485090599,삼육의료원건강검진센터,경보 및 피난설비,종합병원
20333,37.50098981107543,127.050967901594,누네안과병원 서울병원,경보 및 피난설비,종합병원
26069,37.501778226919825,127.093608750428,삼전그린공원,경보 및 피난설비,공원
19712,37.48213615704633,126.92103702238043,남서울 중학교,경보 및 피난설비,학교
25026,37.51309849808242,126.95595520770031,본동종합사회복지관,경보 및 피난설비,복지시설
18053,37.546422028385436,127.10928510725678,광진구 공연장,경보 및 피난설비,영화관/공연장
19994,37.6668443149235,127.05171128471216,노원경찰서 상계8치안센터,경보 및 피난설비,경찰서
27063,37.55883402378754,126.84820506732737,서울등촌동우체국,경보 및 피난설비,우체국
27051,37.55981308446968,126.85006828521796,서울등원초등학교,경보 및 피난설비,학교
26101,37.502185731700365,126.88247386119151,삼전솔하임,경보 및 피난설비,종합병원
26107,37.50627106149754,127.09533346545736,삼학사어린이공원,경보 및 피난설비,공원
27571,37.64253699263409,127.056969927077,서울시립북부장애인종합복지관,경보 및 피난설비,복지시설
18096,37.53651137862957,127.09648076709179,광진종합문화센터,경보 및 피난설비,영화관/공연장
27044,37.48053895404597,126.97953156602163,서울동작경찰서 사당지구대,경보 및 피난설비,경찰서
19101,37.46831286136582,126.90853557217295,금천체육공원,경보 및 피난설비,공원
27561,37.56410760112768,126.9736999947165,서울시립미술관,경보 및 피난설비,전시장
26213,37.47372781474297,126.89741842168924,상금복지관,경보 및 피난설비,복지시설
19147,37.54924261819308,127.01853173279082,금호공원체육관,경보 및 피난설비,화장실
27685,37.570496849699246,126.9710761260185,서울역사박물관,경보 및 피난설비,전시장
26275,37.604109716477396,126.9551587033551,상명대학교 대학원,경보 및 피난설비,학교
27732,37.504294551115045,126.89441802154712,서울영원초등학교,경보 및 피난설비,학교
26964,37.494711905100964,127.065026466778,서울대곡초등학교,경보 및 피난설비,학교
20385,37.68556742626127,127.04993302263458,누원고등학교,경보 및 피난설비,학교
24707,37.65640600923996,127.0359063426612,백운중학교,경보 및 피난설비,학교
26953,37.555948557770826,127.07554598085085,서울능동우편취급국,경보 및 피난설비,우체국
26287,37.59312975445335,127.0824906030141,상봉어린이공원,경보 및 피난설비,공원
27747,37.48564457414372,126.883811365561,서울영일초등학교,경보 및 피난설비,학교
24749,37.616691176074944,127.03389828342668,번동중학교,경보 및 피난설비,학교
18596,37.5651938759843,126.96544140920116,구세군144주년기념빌딩,경보 및 피난설비,영화관/공연장
26296,37.55095841668293,126.92106405980402,상상라이브홀,경보 및 피난설비,영화관/공연장
19601,37.58081491141709,127.00398052499972,낙산제빌딩,경보 및 피난설비,영화관/공연장
27759,37.51242464921969,127.13450843576594,서울오륜초등학교,경보 및 피난설비,학교
19243,37.66548951664893,127.04193588418718,기업은행(6층 병원),경보 및 피난설비,종합병원
24656,37.54427794441077,126.9592546183861,백범기념관,경보 및 피난설비,전시장
24633,37.537207153762296,127.1267685126919,배윤자요리학원,경보 및 피난설비,종합병원
26928,37.58564377691853,126.9687741839122,서울농학교,경보 및 피난설비,학교
27771,37.494003349918756,126.8259690590388,서울온수초등학교,경보 및 피난설비,학교
26941,37.6872327126115,127.04926750406996,서울누원초등학교,경보 및 피난설비,학교
23548,37.547895182680065,126.81950678330452,메이필드호텔,경보 및 피난설비,일반숙박시설
24751,37.622900282166185,127.04602158450304,벌리어린이공원,경보 및 피난설비,공원
19199,37.56930782505573,126.8486954521885,기쁜우리복지관,경보 및 피난설비,복지시설
18638,37.59336500510857,127.09551239550972,구세군자활주거복지센터,경보 및 피난설비,복지시설
27697,37.590449927501844,126.92520721491164,서울연은초등학교,경보 및 피난설비,학교
27000,37.65228805441595,127.05171478775006,서울도봉경찰서 창동지구대,경보 및 피난설비,경찰서
24846,37.6094469232038,126.93200615326448,벨라지오 관광호텔,경보 및 피난설비,일반숙박시설
26237,37.50070325764762,126.93768703741495,상도4치안센터,경보 및 피난설비,경찰서
27706,37.55500148302127,126.87120498609676,서울염경초등학교,경보 및 피난설비,학교
26989,37.68399279224774,127.04927896526121,서울도봉경찰서 도봉2파출소,경보 및 피난설비,경찰서
24827,37.498031658269326,127.05719922660332,베스티안 서울병원,경보 및 피난설비,종합병원
26976,37.61236603613672,126.92586935917255,서울대은초등학교,경보 및 피난설비,학교
26246,37.500138223984386,126.9209502154868,상도종합사회복지관,경보 및 피난설비,복지시설
19179,37.55302155799261,127.08684188518644,급식동,경보 및 피난설비,학교
27718,37.51358134386737,126.8976489370664,서울영등포경찰서 문래지구대,경보 및 피난설비,경찰서
24798,37.56617915968971,126.99630096410387,베스트웨스턴 호텔국도,경보 및 피난설비,일반숙박시설
19629,37.48040128289675,126.91396581144144,난우어린이공원,경보 및 피난설비,공원
24783,37.50637785603889,127.0297858159252,베스트웨스턴 호텔 강남호텔,경보 및 피난설비,일반숙박시설
23690,37.55035085356257,127.1455807813296,명일동우체국,경보 및 피난설비,우체국
18359,37.476066978774575,127.06728494581458,구룡산,경보 및 피난설비,공원
18610,37.6256799328332,127.0133941983791,구세군강북사회종합복지관,경보 및 피난설비,복지시설
23499,37.55150125484477,126.91395205031792,메세나 폴리스,경보 및 피난설비,영화관/공연장
23886,37.540638969026865,127.0906565493538,목련공원?개방화장실,경보 및 피난설비,화장실
25096,37.47846214562644,126.96153795608524,봉천파출소,경보 및 피난설비,경찰서
20207,37.502698824341415,127.03974112249331,녹스호텔,경보 및 피난설비,일반숙박시설
23991,37.57504560323335,126.8954909946141,문화 및 집회시설(제일리아트홀),경보 및 피난설비,전시장
27269,37.481585344616796,126.9117077397649,서울본병원 구강남중앙병원,경보 및 피난설비,종합병원
25657,37.50050421510755,127.02590222082449,사랑의복지관,경보 및 피난설비,복지시설
27258,37.629025569939756,127.04003939095571,서울번동초등학교,경보 및 피난설비,학교
25451,37.61088601720936,127.03094189777508,빅토리아호텔,경보 및 피난설비,일반숙박시설
18814,37.55841593236006,126.95789784128594,굴레방 마을마당,경보 및 피난설비,공원
23979,37.55440443184595,126.9219657992853,문화 및 집회시설,경보 및 피난설비,전시장
24039,37.64055524003648,127.02443251623457,미루나무어린이공원,경보 및 피난설비,공원
27407,37.55584906407182,127.12820344143765,서울선사초등학교,경보 및 피난설비,학교
18188,37.54296419099017,127.09443419719764,교육관,경보 및 피난설비,복지시설
25390,37.631205634354316,127.0502954024462,비석골근린공원,경보 및 피난설비,공원
27249,37.66381989999999,127.0308996,서울방학초등학교,경보 및 피난설비,학교
25687,37.547005120265815,127.14364149310327,사랑플러스빌딩,경보 및 피난설비,종합병원
19827,37.64880214566842,127.05374297275465,노곡중학교,경보 및 피난설비,학교
27236,37.621531701672396,127.0141319970728,서울미양초등학교,경보 및 피난설비,학교
18794,37.53408430699921,127.0676312012205,군자동극장,경보 및 피난설비,영화관/공연장
25719,37.53384107271477,126.95062992513256,사회복지법인 한벗재단,경보 및 피난설비,복지시설
27440,37.53890911280113,127.06927394662478,서울성수노룬산우편취급국,경보 및 피난설비,우체국
20293,37.56578553552721,126.96757814405089,농협중앙회 중앙본부 신관,경보 및 피난설비,전시장
20239,37.512226893041046,127.03089659915771,논현 개나리공원,경보 및 피난설비,공원
25477,37.536983023856585,126.88674595133648,빨라쪼 이대목동병원점,경보 및 피난설비,종합병원
27396,37.49197583046242,127.01079211870358,서울서초경찰서 서초3파출소,경보 및 피난설비,경찰서
18840,37.55681628993303,126.94212208803258,굿타임호텔,경보 및 피난설비,일반숙박시설
27357,37.66767303864923,127.059718447124,서울상원초등학교,경보 및 피난설비,학교
19887,37.6551928314844,127.05935034488756,노블레스관광호텔,경보 및 피난설비,일반숙박시설
27331,37.6596254560325,127.06649374513405,서울상계초등학교,경보 및 피난설비,학교
18854,37.49913350853486,126.82956240498748,궁동종합사회복지관,경보 및 피난설비,복지시설
27371,37.53674140243583,126.9692471667815,서울서부지방법원 용산등기소,경보 및 피난설비,지역자치센터
27322,37.588770331507455,127.04717356048012,서울삼육초등학교,경보 및 피난설비,학교
23608,37.55928048815075,127.0128571521314,명덕빌딩,경보 및 피난설비,종합병원
25483,37.63076500676251,127.01419718626148,빨래골 공원,경보 및 피난설비,공원
27383,37.523451293072384,126.86723651941193,서울서정초등학교,경보 및 피난설비,학교
26729,37.53291073052346,126.86313769033191,서울강서경찰서 곰달래지구대,경보 및 피난설비,경찰서
25620,37.4926011109021,126.96260721393257,사랑손주간보호센터,경보 및 피난설비,복지시설
25533,37.482847476262585,126.97149888669121,사당종합사회복지관,경보 및 피난설비,복지시설
27309,37.62329377425496,127.01614864583084,서울삼양초등학교,경보 및 피난설비,학교
18881,37.61933911790848,127.02293040604994,궁터길마을마당,경보 및 피난설비,공원
19870,37.506280656206656,127.02935147679716,노보텔 엠베스더 강남,경보 및 피난설비,일반숙박시설
20283,37.56649938877239,126.96855579688858,농협중앙회중앙본부사무실,경보 및 피난설비,전시장
27296,37.58714287515434,127.01267173118393,서울삼선초등학교,경보 및 피난설비,학교
25562,37.49691982086978,127.15258324978217,사랑나눔주간보호,경보 및 피난설비,복지시설
23488,37.56037503818132,126.9796002905616,메사,경보 및 피난설비,영화관/공연장
27224,37.66413241857218,127.04728468174284,서울문화고등학교,경보 및 피난설비,학교
27452,37.603470276656665,126.96097087510286,서울세검정초등학교,경보 및 피난설비,학교
27154,37.5920424099565,127.09979527957508,서울 면일 초등학교,경보 및 피난설비,학교
27506,37.6510238921781,127.02794427819036,서울숭미초등학교 교무실,경보 및 피난설비,학교
25235,37.610771174669225,126.92861176442352,불광cgv,경보 및 피난설비,영화관/공연장
27509,37.54307023686678,127.04179932558156,서울숲,경보 및 피난설비,공원
25219,37.68154104495838,127.04283369733574,북서울중학교,경보 및 피난설비,학교
27144,37.58260517466021,127.08881899680176,서울면목동우체국,경보 및 피난설비,우체국
27129,37.56687640422922,126.9098459223687,서울 메디칼센터 ,경보 및 피난설비,종합병원
18138,37.54796965087783,126.85235072276943,교남소망의집,경보 및 피난설비,복지시설
27157,37.498168158252795,126.82744309205404,서울모자의집,경보 및 피난설비,복지시설
25945,37.49849836419981,126.94661824611583,삼성애니아트,경보 및 피난설비,복지시설
25171,37.57442671303734,127.08534530009771,북부등기소,경보 및 피난설비,지역자치센터
27115,37.57749829624864,126.96694363685718,서울매동초등학교,경보 및 피난설비,학교
19969,37.55486445119392,126.85264494964252,노스탈자호텔,경보 및 피난설비,일반숙박시설
27103,37.496498096024645,127.14980956624704,서울마천동우체국,경보 및 피난설비,우체국
25135,37.48312805437037,127.00935266951677,부원빌딩,경보 및 피난설비,종합병원
18317,37.48682257702298,126.89082890797512,구로종합사회복지관,경보 및 피난설비,복지시설
19041,37.45266802619669,126.90440459439438,금빛 공원,경보 및 피난설비,공원
18717,37.52114205486601,126.98052047377905,국립중앙박물관,경보 및 피난설비,전시장
25189,37.679706390307324,127.0524094511817,북부종합사회복지관,경보 및 피난설비,복지시설
20236,37.51727790929765,127.03718791359726,논현2동문화센터,경보 및 피난설비,지역자치센터
19773,37.557281236580884,126.84309718791616,내발산동 사회복지시설,경보 및 피난설비,복지시설
27495,37.60381835802252,127.01329062070862,서울 숭덕초등학교,경보 및 피난설비,학교
25746,37.54113965868448,127.14508310682376,사회복지시설,경보 및 피난설비,복지시설
25327,37.516369910341155,127.02193965328378,브로드웨이시네마(1-5),경보 및 피난설비,영화관/공연장
27460,37.48870041794468,127.10503989296237,서울수서동우체국,경보 및 피난설비,우체국
20312,37.574541425246814,126.81613246163393,뇌성마비복지관,경보 및 피난설비,복지시설
27213,37.61036731937432,127.07744027706049,서울묵동우체국,경보 및 피난설비,우체국
25762,37.462984981626505,126.90712235789722,산기슭 공원,경보 및 피난설비,공원
25302,37.582279873248936,127.02130686801864,브라운관광호텔,경보 및 피난설비,일반숙박시설
27200,37.558713415016726,127.15309397367679,서울묘곡초등학교,경보 및 피난설비,학교
25903,37.464429098069225,126.93196588285412,삼성동 자치회관,경보 및 피난설비,지역자치센터
27473,37.631250648442794,127.02029218436115,서울수유초등학교,경보 및 피난설비,학교
27189,37.54293623076178,126.88244613233448,서울목원초등학교,경보 및 피난설비,학교
25801,37.52963018958326,126.84768502105764,산후조리원웰빙센타,경보 및 피난설비,종합병원
19792,37.51143264033747,126.84151470886484,넓은들공원,경보 및 피난설비,공원
25819,37.6161473444376,127.01457044732136,삼각산중학교,경보 및 피난설비,학교
25272,37.5486305530924,126.81960912001034,붐관광호텔,경보 및 피난설비,일반숙박시설
25876,37.58370513045657,127.00745414953276,삼선공원,경보 및 피난설비,공원
25259,37.66182997427618,127.07986013245123,불암산공원,경보 및 피난설비,공원
18296,37.53962029304504,127.04431384285505,교통정보센터,경보 및 피난설비,경찰서
25293,37.55299076057101,126.85008648029293,뷰티크모텔,경보 및 피난설비,일반숙박시설
24619,37.48821316578545,127.0594667447503,배밭공원,경보 및 피난설비,공원
23842,37.530718761133116,126.87550066223238,목동청소년수련관,경보 및 피난설비,영화관/공연장
20183,37.60271099417693,126.9317812647442,녹번종합사회복지관,경보 및 피난설비,복지시설
24526,37.514644489531854,127.11418851918964,방이복지관,경보 및 피난설비,복지시설
27930,37.55026581355625,127.10313451743252,서울장로회신학대학교우편취급국,경보 및 피난설비,우체국
27858,37.6948396108732,127.0424422316215,서울인강학교,경보 및 피난설비,학교
19415,37.531529727242024,126.84786217766523,까치산시장 고객만족센터 및 주차장,경보 및 피난설비,지역자치센터
24425,37.473919209330724,126.96737820206194,밤골어린이공원,경보 및 피난설비,공원
17977,37.5162599,126.90519010000004,광야홈리스센터,경보 및 피난설비,복지시설
27782,37.56083350018128,126.926898334385,서울외국인학교,경보 및 피난설비,학교
19545,37.57857055589151,127.0387308392912,나은빌딩,경보 및 피난설비,종합병원
27866,37.64305134096786,127.00913700633278,서울인수초등학교,경보 및 피난설비,학교
27933,37.553820734094046,127.151906988264, 서울장애인종합복지관,경보 및 피난설비,복지시설
26451,37.604126836868076,127.03704537943935,생명의전화종합사회복지관,경보 및 피난설비,복지시설
26525,37.547736078565904,126.93206224624826,서강동자치회관,경보 및 피난설비,지역자치센터
27916,37.531599918241966,127.07560287427744,서울자양아파트우편취급국,경보 및 피난설비,우체국
18516,37.489727219184644,126.82478039574607,구립장애인보호작업시설,경보 및 피난설비,복지시설
26671,37.49818888582225,126.9864160027943,서래지구대,경보 및 피난설비,경찰서
26606,37.580605254328255,126.93353130974691,서대문문화체육회관,경보 및 피난설비,영화관/공연장
26432,37.581532146394075,127.00233671286007,샘터빌딩,경보 및 피난설비,전시장
26907,37.673594909847424,127.05845817832814,서울노원초등학교,경보 및 피난설비,학교
24202,37.569879682776545,126.98604076887199,밀레니엄차과 병원 ,경보 및 피난설비,종합병원
18470,37.53368613841085,126.95072053962977,구립용산장애인복지관,경보 및 피난설비,복지시설
24479,37.66931261272068,127.0326391263692,방아골복지관,경보 및 피난설비,복지시설
26762,37.61846291406025,127.07572245659875,서울공릉동우체국,경보 및 피난설비,우체국
27803,37.63871159888088,127.0150053909544,서울우이초등학교,경보 및 피난설비,학교
26862,37.66458604168772,127.06361936350328,서울노원경찰서 마들파출소,경보 및 피난설비,경찰서
26633,37.57586085966407,126.93726221021154,서대문자연사박물관,경보 및 피난설비,전시장
26622,37.582866019565046,126.91300571616868,서대문소방서11안전센터,경보 및 피난설비,경찰서
18532,37.51198095762709,126.93244303956894,구립장애인보호작업장,경보 및 피난설비,복지시설
26877,37.663726523222905,127.06684648280256,서울노원지역자활센터,경보 및 피난설비,복지시설
19334,37.608815196546814,127.02478001302087,길음종합사회복지관,경보 및 피난설비,복지시설
26643,37.55947159082256,126.95703708357377,서대문장애인종합복지관(북아현동주민센터),경보 및 피난설비,복지시설
26874,37.679679960653175,127.05504849535286,서울노원경찰서 상계1파출소,경보 및 피난설비,경찰서
27829,37.65059010781853,127.07308983586769,서울을지초등학교,경보 및 피난설비,학교
23715,37.49397716694457,126.89962520338574,명지성묘 별관,경보 및 피난설비,종합병원
20442,37.56799000258231,126.9781674629412,뉴서울호텔,경보 및 피난설비,일반숙박시설
24262,37.515033620262926,127.0171025800996,바빌론관광호텔,경보 및 피난설비,일반숙박시설
24507,37.51455413533975,127.11445080025268,방이2동주민센터,경보 및 피난설비,지역자치센터
19422,37.58350754614717,127.08696785855277,까치어린이공원(지하주차장),경보 및 피난설비,공원
20418,37.58315289082178,127.0731914133896,뉴비젼빌딩,경보 및 피난설비,복지시설
27819,37.648046209598405,127.05175263938412,서울월천초등학교,경보 및 피난설비,학교
26510,37.55146840754552,126.943027035678,서강대학교 토마스 모어관(고시동) ,경보 및 피난설비,학교
19418,37.479964350355424,126.95950663908995,까치어린이공원,경보 및 피난설비,공원
27840,37.536478066990746,126.98767175511551,서울이태원초등학교,경보 및 피난설비,학교
23790,37.525843326684615,126.86954915301556,목동 K.T,경보 및 피난설비,영화관/공연장
26776,37.627549240998505,127.07450822196849,서울공연초등학교,경보 및 피난설비,학교
20401,37.55412810039832,126.85173650252209,뉴리젠트호텔,경보 및 피난설비,일반숙박시설
19299,37.521934357141006,127.13872914296526,길동 주민센터,경보 및 피난설비,지역자치센터
26420,37.471072723606355,126.9412432001112,색동어린이공원,경보 및 피난설비,공원
19442,37.51217021297269,127.10858364512251,꿈나무어린이공원,경보 및 피난설비,공원
26477,37.55688483509514,126.81568693660984,샬롬의집,경보 및 피난설비,복지시설
26393,37.484490720859384,126.94938702996534,새싹어린이공원,경보 및 피난설비,공원
27985,37.57107455803523,126.96212428416294,서울종로경찰서 교남파출소,경보 및 피난설비,경찰서
27795,37.57049602570039,127.03211147643896,서울용두동우체국,경보 및 피난설비,우체국
24378,37.5071164190274,127.00987139904676,반포자이중심상가,경보 및 피난설비,종합병원
26718,37.55364589171284,127.15608941611313,서울강동경찰서 명일파출소,경보 및 피난설비,경찰서
26551,37.55331454988785,126.91976238202065,서교동 관광호텔 ,경보 및 피난설비,일반숙박시설
27905,37.48308954040176,127.08651666267315,서울일원본동우체국,경보 및 피난설비,우체국
26799,37.48600783720949,126.93436598547113,서울관악경찰서 당곡지구대,경보 및 피난설비,경찰서
19290,37.540199327871186,127.14773805177354,길2치안센터,경보 및 피난설비,경찰서
19451,37.54624626174557,126.84617109528816,꿈돌이공원(화장실)-(새길상세주소누락),경보 및 피난설비,화장실
27888,37.58360913309185,126.8844155644079,서울일본인학교(상암일본인학교),경보 및 피난설비,학교
20057,37.62924793057825,127.0596650314527,노원제1장애인주간보호소,경보 및 피난설비,복지시설
26838,37.48666092104907,126.89139901327957,서울 구로경찰서 구로3파출소,경보 및 피난설비,경찰서
26810,37.54806798697507,127.10650824784551,서울광나루우편취급국,경보 및 피난설비,우체국
19562,37.549185294961816,126.87862496135864,나이아가라관광호텔,경보 및 피난설비,일반숙박시설
26741,37.55049927906713,127.09094461541031,서울경안우편취급국,경보 및 피난설비,우체국
26820,37.46828596790833,127.03306699554705,서울교육문화회관,경보 및 피난설비,영화관/공연장
17935,37.57258243790213,126.9842109640222,관훈동 관광숙박시설,경보 및 피난설비,일반숙박시설
19504,37.63642373050545,127.07764405340069,나눔아트센터,경보 및 피난설비,복지시설
23702,37.49416075661188,126.8993716567622,명지성묘,경보 및 피난설비,종합병원
19574,37.56857825020632,126.98302554431255,나인트리호텔,경보 및 피난설비,일반숙박시설
26752,37.5328698484637,126.88569771419348,서울경인초등학교,경보 및 피난설비,학교
24573,37.570718963971686,126.80572779900083,방화11종합복지관(별관),경보 및 피난설비,복지시설
19462,37.56024040629791,126.85169270104666,꿈자람터?장애인주간보호센터,경보 및 피난설비,복지시설
27973,37.57696041772309,126.81893401667926,서울정곡초등학교,경보 및 피난설비,학교
23774,37.527196793412344,126.87469197547888,목동 CGV,경보 및 피난설비,영화관/공연장
24613,37.49768949874503,127.09581108705886,배명중중고등학교,경보 및 피난설비,학교
22281,37.565385474725474,126.84225618100642,"등촌1,2단지 복지관",샤워실 및 탈의실,복지시설
16629,37.477704626550576,126.91785350660135,갑을복지재단 재활센터,샤워실 및 탈의실,복지시설
16584,37.5457743450545,126.97482444506555,갈월동 종합사회복지관,샤워실 및 탈의실,복지시설
28992,37.56515695114194,126.90043527997923,성산임대아파트 사회복지관 ,샤워실 및 탈의실,복지시설
20557,37.568536051157714,126.851119344796,늘푸른나무복지관,샤워실 및 탈의실,복지시설
36069,37.48985843949111,126.84111705028654,창신 모자원,샤워실 및 탈의실,복지시설
27168,37.498168158252795,126.82744309205404,서울모자의집,샤워실 및 탈의실,복지시설
30330,37.570695972747174,126.913798664514,시립서대문농아인복지관,샤워실 및 탈의실,복지시설
25201,37.679706390307324,127.0524094511817,북부종합사회복지관,샤워실 및 탈의실,복지시설
31994,37.615183661906784,126.91424569590326,에버그린하우스,샤워실 및 탈의실,복지시설
33071,37.58700426419113,127.09518724840542,용마문화복지센터,샤워실 및 탈의실,복지시설
21640,37.54526029862822,127.13800740968418,돌봄의 집,샤워실 및 탈의실,복지시설
31319,37.54920005176802,126.91638545592916,아름뜰(홀트아동복지회),샤워실 및 탈의실,복지시설
16650,37.48284587857757,127.07937075395105,강남구 직업재활센터,샤워실 및 탈의실,복지시설
18153,37.54796965087783,126.85235072276943,교남소망의집,샤워실 및 탈의실,복지시설
20901,37.50992549768564,126.93042710651699,대방종합사회복지관,샤워실 및 탈의실,복지시설
28940,37.5955283953224,127.01940378389963,성북시각장애인복지관,샤워실 및 탈의실,복지시설
26496,37.55688483509514,126.81568693660984,샬롬의집,샤워실 및 탈의실,복지시설
21127,37.48393815160635,127.07899653234749,대청사회복지관(증축),샤워실 및 탈의실,복지시설
19778,37.557281236580884,126.84309718791616,내발산동 사회복지시설,샤워실 및 탈의실,복지시설
22294,37.56188161033503,126.80991135278586,등촌4종합사회복지관,샤워실 및 탈의실,복지시설
34835,37.567951852620475,127.06617220033043,장안종합복지관,샤워실 및 탈의실,복지시설
35942,37.64098042526975,127.02481335350059,참사랑너나울주간센터,샤워실 및 탈의실,복지시설
33742,37.604472090632704,127.09591616643242,유린원광종합사회복지관,샤워실 및 탈의실,복지시설
20606,37.47167750229508,127.0525939550434,능인종합사회복지관,샤워실 및 탈의실,복지시설
41503,37.510334,127.101129,트레져오일몽촌주유소 화장실,샤워실 및 탈의실,화장실
23223,37.56544557817517,126.90080162637967,마포장애인종합복지관,샤워실 및 탈의실,복지시설
27582,37.64253699263409,127.056969927077,서울시립북부장애인종합복지관,샤워실 및 탈의실,복지시설
35774,37.59501969440208,127.07489247448136,중화문화복지센터,샤워실 및 탈의실,복지시설
23124,37.54970612586629,126.84619567115324,마음자리,샤워실 및 탈의실,복지시설
34857,37.550367907036325,127.12435547520664,장애인사랑의쉼터의집,샤워실 및 탈의실,복지시설
16738,37.49471831292079,127.0834994877244,강남장애인복지관,샤워실 및 탈의실,복지시설
31969,37.5011788522105,126.84124687039156,에덴장애인종합복지관,샤워실 및 탈의실,복지시설
35466,37.55047667562073,127.12713048064495,"주몽 학교,주몽재활원",샤워실 및 탈의실,복지시설
16354,37.54459718097464,127.13799260844502,가나안의집,샤워실 및 탈의실,복지시설
25759,37.54113965868448,127.14508310682376,사회복지시설,샤워실 및 탈의실,복지시설
25948,37.49849836419981,126.94661824611583,삼성애니아트,샤워실 및 탈의실,복지시설
23179,37.5559950297108,126.94304622446259,마포복지종합지원센터,샤워실 및 탈의실,복지시설
35551,37.65609213052153,127.07496737302755,중계종합사회복지관,샤워실 및 탈의실,복지시설
