,place_id,place_name,lat,lng,place_address,category,facility_id,facility_available_name,facility_is_available
14574,20073,CGV,37.5284437241851,127.12535988866115,서울특별시 강동구 성내로 48,영화관/공연장,200516,자동 판매기,
14587,20074,CGV구로14,37.50115888382457,126.88277403171672,서울특별시 구로구 구로중앙로 152,영화관/공연장,200535,자동 판매기,
14600,20075,CGV상암14,37.5635262478331,126.89843632998341,서울특별시 마포구 월드컵로 244,영화관/공연장,200554,자동 판매기,
14611,20076,CGV용산 11,37.5297699998206,126.96474274881271,서울특별시 용산구 한강대로23길 55,영화관/공연장,200573,자동 판매기,
14856,20194,KBS방송국 서울별관,37.518711488257054,126.92941898842821,서울특별시 영등포구 여의대방로 359,영화관/공연장,201423,자동 판매기,
14881,20201,KH바텍사옥,37.48223033295346,127.01273992010954,서울특별시 서초구 반포대로 18,영화관/공연장,201494,자동 판매기,
15172,20378,VERTIGO빌딩,37.55634170573935,126.93730121307377,서울특별시 서대문구 연세로 8-1,영화관/공연장,202718,자동 판매기,
15292,20429,㈜에니웍스,37.5836476795585,127.00231413577556,서울특별시 종로구 동숭길 144,영화관/공연장,203053,자동 판매기,
15369,20450,가나안의집,37.54459718097464,127.13799260844502,서울특별시 강동구 천중로35길 73-7,복지시설,203200,자동 판매기,
15414,20478,가브리엘의집,37.550762417383105,126.97550629168234,서울특별시 용산구 후암로35길 22-23,복지시설,203483,자동 판매기,
15509,20531,갈월동 종합사회복지관,37.5457743450545,126.97482444506555,서울특별시 용산구 두텁바위로 25,복지시설,203968,자동 판매기,
15538,20541,갑을복지재단 재활센터,37.477704626550576,126.91785350660135,서울특별시 관악구 난우16길 13-7,복지시설,204088,자동 판매기,
15559,20556,강남구 직업재활센터,37.48284587857757,127.07937075395105,서울특별시 강남구 광평로64길 22,복지시설,204245,자동 판매기,
15591,20573,강남스포츠문화센터,37.488992130621185,127.10528001613348,서울특별시 강남구 밤고개로1길  52,보건소,204479,자동 판매기,
15616,20582,강남장애인복지관,37.49471831292079,127.0834994877244,서울특별시 강남구 개포로 645,복지시설,204571,자동 판매기,
15636,20585,강남종합사회복지관,37.49198231160321,127.07346872881212,서울특별시 강남구 개포로 605,복지시설,204610,자동 판매기,
15700,20611,강동미르사랑 데이케어센터,37.5351413199334,127.1461259743747,서울특별시 강동구 천호대로 1214,복지시설,204944,자동 판매기,
15765,20647,강북구립보호작업장,37.61633878840478,127.03098946337694,서울특별시 강북구 오현로 1-,복지시설,205292,자동 판매기,
15788,20656,강북문화예술화관,37.64098942633013,127.01387735123377,서울특별시 강북구 삼각산로 85,영화관/공연장,205406,자동 판매기,
15826,20670,강북장애인복지관,37.61636736511229,127.03194543709392,서울특별시 강북구 오현로 18,복지시설,205548,자동 판매기,
15838,20671,강북제일교회사회복지시설,37.62800238404007,127.02595546516173,서울특별시 강북구 도봉로 214,복지시설,205571,자동 판매기,
15870,20688,강서구보건소 화곡보건분소,37.53546719917196,126.84109727614859,서울특별시 강서구 월정로30길 96,보건소,205753,자동 판매기,
16164,20898,경희대학교우체국,37.59109845709271,127.03719743902364,서울특별시 동대문구 회기로 1,우체국,207704,자동 판매기,
16177,20911,고덕1동 주민센터,37.557338443456544,127.15173757426365,서울특별시 강동구 고덕로61길 61,지역자치센터,207816,자동 판매기,
16238,20960,골든시네마,37.47744337707189,126.98128703356329,서울특별시 동작구 동작대로 8,영화관/공연장,208306,자동 판매기,
16268,20981,공덕동자치회관,37.54222951467874,126.95548998908842,서울특별시 마포구 백범로 227,지역자치센터,208467,자동 판매기,
16286,20991,공릉종합사회복지관,37.62958831565961,127.06985648241071,서울특별시 노원구 동일로 1127,복지시설,208583,자동 판매기,
16433,21089,광야홈리스센터,37.5162599,126.90519010000004,서울특별시 영등포구 영등포4가 423-37,복지시설,209452,자동 판매기,
16483,21115,광진구 공연장,37.546422028385436,127.10928510725678,서울특별시 광진구 구천면로 24,영화관/공연장,209702,자동 판매기,
16511,21129,광진종합문화센터,37.53651137862957,127.09648076709179,서울특별시 광진구 광나루로56길 67,영화관/공연장,209884,자동 판매기,
16538,21147,교남소망의집,37.54796965087783,126.85235072276943,서울특별시 강서구 까치산로22길 38,복지시설,210085,자동 판매기,
16569,21155,교육관,37.54296419099017,127.09443419719764,서울특별시 광진구 워커힐로 3,복지시설,210173,자동 판매기,
16630,21188,교통정보센터,37.53962029304504,127.04431384285505,서울특별시 성동구 왕십리로 28,경찰서,210470,자동 판매기,
16660,21222,구로종합사회복지관,37.48682257702298,126.89082890797512,서울특별시 구로구 디지털로31길 93,복지시설,210884,자동 판매기,
16748,21254,구립용산장애인복지관,37.53368613841085,126.95072053962977,서울특별시 용산구 효창원로3길 51,복지시설,211168,자동 판매기,
16775,21261,구립장애인보호작업시설,37.489727219184644,126.82478039574607,서울특별시 구로구 경인로 21,복지시설,211239,자동 판매기,
16793,21262,구립장애인보호작업장,37.51198095762709,126.93244303956894,서울특별시 동작구 등용로12길 57,복지시설,211261,자동 판매기,
16822,21281,구세군144주년기념빌딩,37.5651938759843,126.96544140920116,서울특별시 서대문구 충정로 71-5,영화관/공연장,211445,자동 판매기,
16840,21282,구세군강북사회종합복지관,37.6256799328332,127.0133941983791,서울특별시 강북구 인수봉로20가길 24,복지시설,211465,자동 판매기,
16855,21283,구세군자활주거복지센터,37.59336500510857,127.09551239550972,서울특별시 중랑구 봉우재로58길 24,복지시설,211486,자동 판매기,
16962,21368,군자동극장,37.53408430699921,127.0676312012205,서울특별시 광진구 능동로  28,영화관/공연장,212417,자동 판매기,
16998,21379,궁동종합사회복지관,37.49913350853486,126.82956240498748,서울특별시 구로구 오리로22길 5,복지시설,212531,자동 판매기,
17185,21520,금호1가보건분소,37.55300419463702,127.02403723653543,서울특별시 성동구 금호로  114,보건소,213560,자동 판매기,
17197,21523,금호4가동주민센터,37.54716865205317,127.0271586017403,서울특별시 성동구 독서당로52가길  2,지역자치센터,213603,자동 판매기,
17242,21551,기쁜우리복지관,37.56930782505573,126.8486954521885,서울특별시 강서구 허준로  65,복지시설,213832,자동 판매기,
17294,21570,길2치안센터,37.540199327871186,127.14773805177354,서울특별시 강동구 천호대로197길 96,경찰서,213998,자동 판매기,
17301,21574,길동 주민센터,37.521934357141006,127.13872914296526,서울특별시 강동구 명일로 22-1,지역자치센터,214034,자동 판매기,
17329,21590,길음종합사회복지관,37.608815196546814,127.02478001302087,서울특별시 성북구 삼양로8가길  32,복지시설,214177,자동 판매기,
17376,21613,까치산시장 고객만족센터 및 주차장,37.531529727242024,126.84786217766523,서울특별시 강서구 강서로12길  14,지역자치센터,214387,자동 판매기,
17420,21657,꿈자람터?장애인주간보호센터,37.56024040629791,126.85169270104666,서울특별시 강서구 공항대로43길 104,복지시설,214715,자동 판매기,
17448,21667,나눔아트센터,37.63642373050545,127.07764405340069,서울특별시 노원구 공릉로58마길 27,복지시설,214810,자동 판매기,
17508,21691,낙산제빌딩,37.58081491141709,127.00398052499972,서울특별시 종로구 대학로12길 73,영화관/공연장,215017,자동 판매기,
17627,21767,내발산동 사회복지시설,37.557281236580884,126.84309718791616,서울특별시 강서구 강서로52길  88,복지시설,215696,자동 판매기,
17776,21835,노원경찰서 상계8치안센터,37.6668443149235,127.05171128471216,서울특별시 노원구 동일로227길 95,경찰서,216281,자동 판매기,
17786,21836,노원경찰서 중계본동치안센터,37.64763734319077,127.08038883650349,서울특별시 노원구 중계로 139,지역자치센터,216293,자동 판매기,
17801,21842,노원문화예술회관,37.65023585990375,127.08026925498872,서울특별시 노원구 중계로 181,영화관/공연장,216374,자동 판매기,
17827,21855,노원제1장애인주간보호소,37.62924793057825,127.0596650314527,서울특별시 노원구 월계로 372,복지시설,216550,자동 판매기,
17901,21889,녹번종합사회복지관,37.60271099417693,126.9317812647442,서울특별시 은평구 은평로21길  14-26,복지시설,216859,자동 판매기,
17931,21898,논현2동문화센터,37.51727790929765,127.03718791359726,서울특별시 강남구 학동로43길 17,지역자치센터,216953,자동 판매기,
17991,21924,뇌성마비복지관,37.574541425246814,126.81613246163393,서울특별시 강서구 방화대로45길  6,복지시설,217153,자동 판매기,
18025,21929,누야하우스,37.60564519156108,126.90634278387111,서울특별시 은평구 갈현로11길  34,복지시설,217210,자동 판매기,
18059,21937,뉴비젼빌딩,37.58315289082178,127.0731914133896,서울특별시 동대문구 장안벚꽃로7길 5,복지시설,217297,자동 판매기,
18134,21959,늘편한집,37.649839127725855,127.08070849567379,서울특별시 노원구 중계로 163,복지시설,217504,자동 판매기,
18154,21964,늘푸른나무복지관,37.568536051157714,126.851119344796,서울특별시 강서구 허준로5길 37,복지시설,217551,자동 판매기,
18187,21977,능인종합사회복지관,37.47167750229508,127.0525939550434,서울특별시 강남구 양재대로 344,복지시설,217660,자동 판매기,
18235,22001,"다운복지관(1층,2층)",37.61894280874471,127.08031262372484,서울특별시 노원구 화랑로 478,복지시설,217849,자동 판매기,
18336,22096,대림3파출소,37.498315052716244,126.89803617893844,서울특별시 영등포구 대림로 197,경찰서,218655,자동 판매기,
18395,22137,대방종합사회복지관,37.50992549768564,126.93042710651699,서울특별시 동작구 여의대방로44길 47,복지시설,218991,자동 판매기,
18548,22255,대청사회복지관(증축),37.48393815160635,127.07899653234749,서울특별시 강남구 광평로7길 17,복지시설,219924,자동 판매기,
18566,22260,대치동 KT&G,37.50658339307788,127.0653262973692,서울특별시 강남구 영동대로 416,영화관/공연장,219973,자동 판매기,
18583,22268,대학로CGV,37.583456691546466,126.99984149795456,서울특별시 종로구 대명길 28,영화관/공연장,220054,자동 판매기,
18593,22270,대학로스타시티빌딩,37.582058349057284,127.00041662615543,서울특별시 종로구 대학로11길 23,영화관/공연장,220079,자동 판매기,
18765,22387,도봉1파출소,37.67947579559954,127.0433993173795,서울특별시 도봉구 도봉로169길 43,경찰서,221081,자동 판매기,
18778,22389,도봉2주민센터<도봉서원복지관>,37.66967554857821,127.04653557712341,서울특별시 도봉구 마들로  668,지역자치센터,221105,자동 판매기,
18862,22444,독산1동주민센터분소,37.458744833722704,126.8883921771924,서울특별시 금천구 한내로 67-17,지역자치센터,221629,자동 판매기,
18886,22466,돌봄의 집,37.54526029862822,127.13800740968418,서울특별시 강동구 상암로28길 3-14,복지시설,221833,자동 판매기,
18926,22507,동대문종합사회복지관,37.58402116625186,127.03419594182556,서울특별시 동대문구 약령시로5길 22,복지시설,222256,자동 판매기,
18970,22532,동방사회복지회관(별관),37.571258848183824,126.91984274888206,서울특별시 서대문구 모래내로 173,복지시설,222476,자동 판매기,
19149,22686,동작이수종합사회복지관,37.49312014186384,126.97687755566365,서울특별시 동작구 동작대로35차길 7,복지시설,223819,자동 판매기,
19166,22687,동작종합사회복지관,37.505714122452034,126.93341680787148,서울특별시 동작구 등용로 47,복지시설,223841,자동 판매기,
19198,22702,동천의집,37.64451397788511,127.07292525022612,서울특별시 노원구 노원로18길 41,복지시설,223965,자동 판매기,
19217,22706,동해문화예술관,37.61982824130036,127.05759144242985,서울특별시 노원구 광운로 21,영화관/공연장,224005,자동 판매기,
19273,22759,둔촌2파출소,37.52945177020552,127.1391910749382,서울특별시 강동구 양재대로96길 35,경찰서,224423,자동 판매기,
19324,22789,"등촌1,2단지 복지관",37.565385474725474,126.84225618100642,서울특별시 강서구 강서로68길  36,복지시설,224662,자동 판매기,
19339,22795,등촌4종합사회복지관,37.56188161033503,126.80991135278586,서울특별시 강서구 공항대로3길 5,복지시설,224748,자동 판매기,
19490,22858,라파엘의집,37.57883613347313,126.96978684910826,서울특별시 종로구 필운대로2길 16,복지시설,225276,자동 판매기,
19674,22947,롯데몰,37.56596788090347,126.80077792802679,서울특별시 강서구 하늘길  38,영화관/공연장,225928,자동 판매기,
19686,22948,롯데백화점,37.65527828182756,127.06139025733995,서울특별시 노원구 동일로 1414,영화관/공연장,225947,자동 판매기,
19700,22952,롯데백화점 영등포점,37.51566911683294,126.90766791705948,서울특별시 영등포구 경인로 846,영화관/공연장,225995,자동 판매기,
19719,22956,롯데시네마(씨네 일레븐 14관),37.536632041414045,127.12533738826764,서울특별시 강동구 천호옛길 85,영화관/공연장,226034,자동 판매기,
19734,22957,롯데시네마홍대관입구관,37.55724633358884,126.92498689996236,서울특별시 마포구 양화로  176,영화관/공연장,226052,자동 판매기,
19743,22960,롯데월드,37.51131078364221,127.09814039543262,서울특별시 송파구 올림픽로 244,영화관/공연장,226088,자동 판매기,
19925,23074,마음자리,37.54970612586629,126.84619567115324,서울특별시 강서구 화곡로53나길  53,복지시설,226958,자동 판매기,
19964,23108,마포복지종합지원센터,37.5559950297108,126.94304622446259,서울특별시 마포구 신촌로26길 14,복지시설,227286,자동 판매기,
19972,23112,마포우체국,37.5377016360478,126.94406488176188,서울특별시 마포구 마포대로 8,우체국,227364,자동 판매기,
19991,23114,마포장애인종합복지관,37.56544557817517,126.90080162637967,서울특별시 마포구 월드컵로 213,복지시설,227389,자동 판매기,
20005,23115,마포장애인주간보호(월드타운대림)(월드컵북로34길13),37.55758125670983,126.919151180836,서울특별시 마포구 월드컵북로34길  -22,복지시설,227411,자동 판매기,
20038,23132,맑음터단기보호센터,37.549196642392594,126.94049389365965,서울특별시 마포구 백범로 73-11,복지시설,227546,자동 판매기,
20113,23171,메가박스,37.60993102793067,127.03071499041259,서울특별시 강북구 도봉로 3,영화관/공연장,227894,자동 판매기,
20124,23172,메가박스 상봉점,37.59308085084436,127.07475012589887,서울특별시 중랑구 망우로30길 3 (상봉동),영화관/공연장,227915,자동 판매기,
20146,23177,메디아카데미,37.54255130105838,127.1400437101922,서울특별시 강동구 양재대로121길 25,복지시설,227961,자동 판매기,
20173,23188,메사,37.56037503818132,126.9796002905616,서울특별시 중구 남대문시장10길 2,영화관/공연장,228071,자동 판매기,
20185,23189,메세나 폴리스,37.55150125484477,126.91395205031792,서울특별시 마포구 양화로 45,영화관/공연장,228091,자동 판매기,
20315,23282,명일동우체국,37.55035085356257,127.1455807813296,서울특별시 강동구 구천면로 424-,우체국,228814,자동 판매기,
20389,23329,목동 CGV,37.527196793412344,126.87469197547888,서울특별시 양천구 목동동로 257,영화관/공연장,229260,자동 판매기,
20401,23330,목동 K.T,37.525843326684615,126.86954915301556,서울특별시 양천구 목동서로 241,영화관/공연장,229280,자동 판매기,
20439,23342,목동청소년수련관,37.530718761133116,126.87550066223238,서울특별시 양천구 목동서로 143,영화관/공연장,229415,자동 판매기,
20615,23475,미아동주민센터,37.62491595687652,127.0128457928891,서울특별시 강북구 솔매로4길 1-1,지역자치센터,230531,자동 판매기,
20868,23603,방아골복지관,37.66931261272068,127.0326391263692,서울특별시 도봉구 시루봉로17길 42,복지시설,231627,자동 판매기,
20879,23606,방이2동주민센터,37.51455413533975,127.11445080025268,서울특별시 송파구 백제고분로 495,지역자치센터,231664,자동 판매기,
20900,23611,방이복지관,37.514644489531854,127.11418851918964,서울특별시 송파구 오금로11길 68,복지시설,231704,자동 판매기,
20927,23628,방화11종합복지관(별관),37.570718963971686,126.80572779900083,서울특별시 강서구 개화동로21길  4,복지시설,231909,자동 판매기,
21241,23825,본동종합사회복지관,37.51309849808242,126.95595520770031,서울특별시 동작구 노량진로32길 7,복지시설,233544,자동 판매기,
21282,23859,봉천파출소,37.47846214562644,126.96153795608524,서울특별시 관악구 남부순환로239길 8,경찰서,233800,자동 판매기,
21332,23893,북부등기소,37.57442671303734,127.08534530009771,서울특별시 중랑구 면목로 242,지역자치센터,234100,자동 판매기,
21351,23895,북부종합사회복지관,37.679706390307324,127.0524094511817,서울특별시 노원구 동일로245길 56,복지시설,234122,자동 판매기,
21383,23907,불광cgv,37.610771174669225,126.92861176442352,서울특별시 은평구 불광로  24,영화관/공연장,234240,자동 판매기,
21450,23934,브로드웨이시네마(1-5),37.516369910341155,127.02193965328378,서울특별시 강남구 도산대로8길 8,영화관/공연장,234484,자동 판매기,
21604,24025,사당종합사회복지관,37.482847476262585,126.97149888669121,서울특별시 동작구 사당로14길 24,복지시설,235152,자동 판매기,
21630,24030,사랑나눔주간보호,37.49691982086978,127.15258324978217,서울특별시 송파구 마천로51길 28,복지시설,235216,자동 판매기,
21662,24036,사랑손주간보호센터,37.4926011109021,126.96260721393257,서울특별시 동작구 사당로2길 32,복지시설,235280,자동 판매기,
21684,24044,사랑의복지관,37.50050421510755,127.02590222082449,서울특별시 서초구 강남대로65길  1,복지시설,235356,자동 판매기,
21734,24065,사회복지법인 한벗재단,37.53384107271477,126.95062992513256,서울특별시 용산구 효창원로6길 42-3,복지시설,235545,자동 판매기,
21745,24066,사회복지시설,37.54113965868448,127.14508310682376,서울특별시 강동구 천중로53길 7,복지시설,235566,자동 판매기,
21836,24134,삼성동 자치회관,37.464429098069225,126.93196588285412,서울특별시 관악구 호암로 524,지역자치센터,236111,자동 판매기,
21871,24170,삼성애니아트,37.49849836419981,126.94661824611583,서울특별시 동작구 양녕로22마길 77,복지시설,236378,자동 판매기,
22032,24312,상계종합복지관,37.668091017040965,127.07832536015448,서울특별시 노원구 덕릉로115나길 25,복지시설,237617,자동 판매기,
22044,24316,상금복지관,37.47372781474297,126.89741842168924,서울특별시 금천구 시흥대로141길 17,복지시설,237669,자동 판매기,
22054,24324,상도4치안센터,37.50070325764762,126.93768703741495,서울특별시 동작구 성대로29길 57,경찰서,237766,자동 판매기,
22068,24331,상도종합사회복지관,37.500138223984386,126.9209502154868,서울특별시 동작구 상도로3가길 7,복지시설,237829,자동 판매기,
22102,24358,상상라이브홀,37.55095841668293,126.92106405980402,서울특별시 마포구 어울마당로 65,영화관/공연장,238090,자동 판매기,
22213,24457,생명의전화종합사회복지관,37.604126836868076,127.03704537943935,서울특별시 성북구 오패산로 21,복지시설,238919,자동 판매기,
22228,24471,샬롬의집,37.55688483509514,126.81568693660984,서울특별시 강서구 방화대로7가길 11,복지시설,239026,자동 판매기,
22251,24476,서강동자치회관,37.547736078565904,126.93206224624826,서울특별시 마포구 독막로  165,지역자치센터,239079,자동 판매기,
22306,24512,서대문문화체육회관,37.580605254328255,126.93353130974691,서울특별시 서대문구 백련사길 3,영화관/공연장,239444,자동 판매기,
22336,24517,서대문장애인종합복지관(북아현동주민센터),37.55947159082256,126.95703708357377,서울특별시 서대문구 북아현로 24,복지시설,239518,자동 판매기,
22347,24521,서래지구대,37.49818888582225,126.9864160027943,서울특별시 서초구 사평대로23길 23,경찰서,239565,자동 판매기,
22381,24545,서울강동경찰서 명일파출소,37.55364589171284,127.15608941611313,서울특별시 강동구 동남로 895,경찰서,239824,자동 판매기,
22389,24549,서울강서경찰서 곰달래지구대,37.53291073052346,126.86313769033191,서울특별시 강서구 곰달래로59길 12,경찰서,239893,자동 판매기,
22399,24554,서울경안우편취급국,37.55049927906713,127.09094461541031,서울특별시 광진구 천호대로 681,우체국,239956,자동 판매기,
22416,24556,서울공릉동우체국,37.61846291406025,127.07572245659875,서울특별시 노원구 동일로 988,우체국,239981,자동 판매기,
22436,24569,서울관악경찰서 당곡지구대,37.48600783720949,126.93436598547113,서울특별시 관악구 남부순환로191길 12,경찰서,240133,자동 판매기,
22445,24570,서울광나루우편취급국,37.54806798697507,127.10650824784551,서울특별시 광진구 광장로 84,우체국,240144,자동 판매기,
22456,24574,서울교육문화회관,37.46828596790833,127.03306699554705,서울특별시 서초구 바우뫼로12길 74,영화관/공연장,240197,자동 판매기,
22467,24577,서울 구로경찰서 구로3파출소,37.48666092104907,126.89139901327957,서울특별시 구로구 디지털로31길 86,경찰서,240230,자동 판매기,
22479,24589,서울노원경찰서 마들파출소,37.66458604168772,127.06361936350328,서울특별시 노원구 한글비석로 489,경찰서,240394,자동 판매기,
22487,24590,서울노원경찰서 상계1파출소,37.679679960653175,127.05504849535286,서울특별시 노원구 동일로 1693,경찰서,240407,자동 판매기,
22502,24591,서울노원지역자활센터,37.663726523222905,127.06684648280256,서울특별시 노원구 한글비석로47길 -3,복지시설,240421,자동 판매기,
22541,24597,서울능동우편취급국,37.555948557770826,127.07554598085085,서울특별시 광진구 면목로 17-1,우체국,240497,자동 판매기,
22564,24634,서울도봉경찰서 도봉2파출소,37.68399279224774,127.04927896526121,서울특별시 도봉구 도봉로180나길 33,경찰서,240960,자동 판매기,
22573,24635,서울도봉경찰서 창동지구대,37.65228805441595,127.05171478775006,서울특별시 도봉구 노해로 392,경찰서,240971,자동 판매기,
22585,24641,서울동대문경찰서 장안2파출소,37.57679472167039,127.07440328227543,서울특별시 동대문구 답십리로69길 100,경찰서,241030,자동 판매기,
22603,24646,서울동작경찰서 사당지구대,37.48053895404597,126.97953156602163,서울특별시 동작구 동작대로9길 35,경찰서,241104,자동 판매기,
22619,24649,서울등촌동우체국,37.55883402378754,126.84820506732737,서울특별시 강서구 화곡로63길 90,우체국,241141,자동 판매기,
22631,24653,서울로얄호텔,37.56438719118553,126.98586522226059,서울특별시 중구 명동길 61,영화관/공연장,241188,자동 판매기,
22643,24655,서울마천동우체국,37.496498096024645,127.14980956624704,서울특별시 송파구 거마로20길 34,우체국,241210,자동 판매기,
22668,24660,서울면목동우체국,37.58260517466021,127.08881899680176,서울특별시 중랑구 면목로 344,우체국,241270,자동 판매기,
22690,24664,서울모자의집,37.498168158252795,126.82744309205404,서울특별시 구로구 오리로17길  77-14,복지시설,241322,자동 판매기,
22715,24667,서울묵동우체국,37.61036731937432,127.07744027706049,서울특별시 중랑구 동일로 895 (묵동),우체국,241366,자동 판매기,
22814,24716,서울서부지방법원 용산등기소,37.53674140243583,126.9692471667815,서울특별시 용산구 백범로90길 32,지역자치센터,241955,자동 판매기,
22831,24719,서울서초경찰서 서초3파출소,37.49197583046242,127.01079211870358,서울특별시 서초구 반포대로30길 40,경찰서,241995,자동 판매기,
22860,24727,서울성수노룬산우편취급국,37.53890911280113,127.06927394662478,서울특별시 광진구 아차산로34길 25,우체국,242072,자동 판매기,
22877,24732,서울수서동우체국,37.48870041794468,127.10503989296237,서울특별시 강남구 광평로 303,우체국,242126,자동 판매기,
22935,24751,서울시립 뇌성마비종합복지관,37.64244347787962,127.05658008579952,서울특별시 노원구 덕릉로70가길 96,복지시설,242294,자동 판매기,
22956,24754,서울시립북부장애인종합복지관,37.64253699263409,127.056969927077,서울특별시 노원구 덕릉로70가길 92,복지시설,242338,자동 판매기,
22967,24755,서울 시립상이군경복지관,37.64281777599706,127.05763637937977,서울특별시 노원구 덕릉로70가길 73,복지시설,242361,자동 판매기,
23041,24807,서울영등포경찰서 문래지구대,37.51358134386737,126.8976489370664,서울특별시 영등포구 경인로 759,경찰서,242986,자동 판매기,
23089,24824,서울용두동우체국,37.57049602570039,127.03211147643896,서울특별시 동대문구 청계천로 497,우체국,243184,자동 판매기,
23157,24847,서울일원본동우체국,37.48308954040176,127.08651666267315,서울특별시 강남구 광평로20길 8,우체국,243440,자동 판매기,
23165,24849,서울자양아파트우편취급국,37.531599918241966,127.07560287427744,서울특별시 광진구 자양번영로4길 5,우체국,243459,자동 판매기,
23173,24852,서울장로회신학대학교우편취급국,37.55026581355625,127.10313451743252,서울특별시 광진구 광장로5길 25-1,우체국,243497,자동 판매기,
23186,24854, 서울장애인종합복지관,37.553820734094046,127.151906988264,서울특별시 강동구 고덕로 241,복지시설,243525,자동 판매기,
23208,24869,서울종로경찰서 교남파출소,37.57107455803523,126.96212428416294,서울특별시 종로구 통일로 196-6,경찰서,243708,자동 판매기,
23221,24871,서울종암경찰서 장위지구대,37.61001392053886,127.05142274857808,서울특별시 성북구 화랑로19길 85,경찰서,243725,자동 판매기,
23243,24878,서울주요무형문화제전수회관,37.51136681725964,127.0485182781177,서울특별시 강남구 봉은사로 446,영화관/공연장,243795,자동 판매기,
23253,24879,서울중계3동우체국,37.64168028030997,127.0685897341925,서울특별시 노원구 공릉로 392,우체국,243813,자동 판매기,
23263,24880,서울중곡3동우편취급국,37.55526556424598,127.0885647194858,서울특별시 광진구 용마산로 18,우체국,243825,자동 판매기,
23270,24882,서울중랑경찰서 망우지구대,37.59903042020253,127.0955332259448,서울특별시 중랑구 망우로 391 (망우동),경찰서,243850,자동 판매기,
23289,24896,서울창5동 우체국,37.65183394991351,127.04273503859707,서울특별시 도봉구 노해로 309,우체국,244032,자동 판매기,
23336,24911,서울테크노마트우편취급국,37.53572634794616,127.09569227689691,서울특별시 광진구 광나루로56길 85,우체국,244210,자동 판매기,
23376,24924,서울한남동우체국,37.53362068166887,127.00358428687193,서울특별시 용산구 대사관로 49,우체국,244358,자동 판매기,
23401,24934,서울휘경동우체국,37.59032594938217,127.0581574777813,서울특별시 동대문구 회기로 201,우체국,244473,자동 판매기,
23434,24959,서초4동노인정,37.495954175921334,127.01532960196822,서울특별시 서초구 서초대로55길  13,지역자치센터,244696,자동 판매기,
23647,25087,성가복지병원,37.59217301142522,127.03533649000708,서울특별시 성북구 종암로 11,복지시설,245784,자동 판매기,
23672,25107,성내3 치안센터,37.52851496240326,127.13272720159617,서울특별시 강동구 양재대로91길 59,경찰서,245965,자동 판매기,
23684,25110,성내동우체국,37.52342445421746,127.13418880663441,서울특별시 강동구 양재대로 1309,우체국,245995,자동 판매기,
23712,25136,성동문화회관,37.55931173695771,127.03600909480193,서울특별시 성동구 왕십리로  281,영화관/공연장,246283,자동 판매기,
23734,25143,성동장애인종합복지관,37.57072971002936,127.03415816902093,서울특별시 성동구 청계천로   516,복지시설,246369,자동 판매기,
23762,25154,성모자애복지관,37.470591011692854,127.1193079878192,서울특별시 강남구 헌릉로757길 35,복지시설,246455,자동 판매기,
23778,25157,성민복지관,37.655929913212475,127.06913320420664,서울특별시 노원구 노원로32길 34-3,복지시설,246489,자동 판매기,
23806,25174,성북구보훈회관,37.60497407683325,127.04636840312651,서울특별시 성북구 화랑로  134,복지시설,246645,자동 판매기,
23842,25186,성북시각장애인복지관,37.5955283953224,127.01940378389963,서울특별시 성북구 동소문로25가길  24,복지시설,246802,자동 판매기,
23878,25208,성산임대아파트 사회복지관 ,37.56515695114194,126.90043527997923,서울특별시 마포구 월드컵로  215,복지시설,247037,자동 판매기,
23908,25231,성수문화복지회관,37.54542892060686,127.04694707758443,서울특별시 성동구 뚝섬로1길 43,복지시설,247269,자동 판매기,
23987,25305,성프란치스꼬장애인종합복지관,37.48180191564522,126.89056486396768,서울특별시 구로구 남부순환로 105라길 25-10,복지시설,247898,자동 판매기,
24132,25420,센트럴시티,37.5039344562304,127.0024111972472,서울특별시 서초구 신반포로  176,영화관/공연장,248824,자동 판매기,
24225,25466,솔바람복지센터,37.53600740310847,127.11587298628555,서울특별시 송파구 풍성로5길 16,복지시설,249148,자동 판매기,
24287,25505,송중문화정보센터,37.61127892995889,127.03062946873978,서울특별시 강북구 도봉로24나길 6,도서관,249467,자동 판매기,
24296,25511,송파1동주민센터,37.50626255660117,127.10931249357498,서울특별시 송파구 백제고분로 392,지역자치센터,249532,자동 판매기,
24380,25578,수서종합사회복지관,37.487979084583344,127.10563137733976,서울특별시 강남구 광평로56길 11,복지시설,250140,자동 판매기,
24412,25598,수유3동지구대,37.64151728074396,127.02542990471972,서울특별시 강북구 한천로144길 1,경찰서,250344,자동 판매기,
24435,25605,수유종합사회복지관,37.64256756576402,127.01683718170229,서울특별시 강북구 삼양로112길  5,복지시설,250404,자동 판매기,
24502,25628,숙명여자대학교 우체국,37.54547273221996,126.96507482960452,서울특별시 용산구 청파로47길 100,우체국,250610,자동 판매기,
24597,25692,스타시티 영존,37.541063363302115,127.07086006197616,서울특별시 광진구 능동로 114,영화관/공연장,251114,자동 판매기,
24634,25709,승가원,37.590077022223966,127.02982819761117,서울특별시 성북구 개운사길 76-1,복지시설,251240,자동 판매기,
24658,25720,시각장애인복지관,37.49838684086344,127.09360904036049,서울특별시 송파구 삼학사로1길 27,복지시설,251330,자동 판매기,
24719,25731,시립광진노인종합복지관 A동,37.55109644167493,127.07159835340424,서울특별시 광진구 군자로 88,복지시설,251434,자동 판매기,
24733,25733,시립노숙인복지시설 보현의집,37.52128419039926,126.91243020912836,서울특별시 영등포구 버드나루로 24,복지시설,251469,자동 판매기,
24755,25735,시립대종합사회복지관,37.609298609165,127.09490307049442,서울특별시 중랑구 신내로 115,복지시설,251499,자동 판매기,
24779,25742,시립서대문농아인복지관,37.570695972747174,126.913798664514,서울특별시 서대문구 수색로4가길 23,복지시설,251589,자동 판매기,
24920,25930,신내종합사회복지관,37.60581978854393,127.09160988237798,서울특별시 중랑구 봉화산로 153,복지시설,253138,자동 판매기,
24940,25944,신당제3동주민센터 민원,37.55247290789113,127.00899466106634,서울특별시 중구 다산로 92,지역자치센터,253287,자동 판매기,
25069,26082,신원동 주민센터,37.48157797027881,126.92733741467644,서울특별시 관악구 신원로3길 13-6,지역자치센터,254485,자동 판매기,
25128,26154,신촌민자역사(메가박스),37.5589747524222,126.94145945501766,서울특별시 서대문구 신촌역로  34,영화관/공연장,255172,자동 판매기,
25191,26195,실로암시각장애인복지관,37.48294075103726,126.94110275358429,서울특별시 관악구 남부순환로 1717,복지시설,255531,자동 판매기,
25329,26255,씨네시티빌딩,37.52289661859363,127.03701422852512,서울특별시 강남구 도산대로 323,영화관/공연장,256054,자동 판매기,
25425,26303,아름다운교회사랑의집,37.63248648305026,127.02206437733852,서울특별시 강북구 도봉로71가길 27,복지시설,256394,자동 판매기,
25445,26309,아름뜰(홀트아동복지회),37.54920005176802,126.91638545592916,서울특별시 마포구 양화로8길  32-3,복지시설,256454,자동 판매기,
25611,26418,아트레온,37.55840541474453,126.92853499410305,서울특별시 서대문구 신촌로  12,영화관/공연장,257244,자동 판매기,
25677,26461,암사1동 주민센터,37.55147973127575,127.13264116774765,서울특별시 강동구 올림픽로98가길 57,지역자치센터,257596,자동 판매기,
25698,26466,암사 재활원,37.557968244483426,127.13144846416485,서울특별시 강동구 올림픽로 864,복지시설,257655,자동 판매기,
25709,26467,압구정CGV,37.52508966110562,127.03072089909469,서울특별시 강남구 압구정로34길  45,영화관/공연장,257677,자동 판매기,
25821,26537,양천구민회관,37.51651994177261,126.86333956388799,서울특별시 양천구 목동서로 367,영화관/공연장,258284,자동 판매기,
25909,26618,에덴장애인종합복지관,37.5011788522105,126.84124687039156,서울특별시 구로구 고척로21가길 84-35,복지시설,258975,자동 판매기,
25930,26627,에버그린하우스,37.615183661906784,126.91424569590326,서울특별시 은평구 연서로21길 27-14,복지시설,259053,자동 판매기,
26033,26705,여성프라자,37.51161024945213,126.9272268735857,서울특별시 동작구 여의대방로54길 18,복지시설,259636,자동 판매기,
26095,26766,연세가양4종합복지관,37.56593156944718,126.8520707894286,서울특별시 강서구 양천로57길 37,복지시설,260186,자동 판매기,
26112,26771,연세대학교강서지역자활센타,37.530967347037155,126.85343867486813,서울특별시 강서구 곰달래로  184,복지시설,260261,자동 판매기,
26177,26841,열린여성센터,37.570482008897095,126.92226597746088,서울특별시 서대문구 홍제천로2길 66-14,복지시설,260913,자동 판매기,
26195,26847,열방교회사회복지관,37.51036082715669,126.84315021326874,서울특별시 양천구 신정로13길 11,복지시설,260967,자동 판매기,
26289,26938,영산문화재단,37.480484024671945,127.03841785614642,서울특별시 서초구 바우뫼로37길 45,영화관/공연장,261845,자동 판매기,
26562,27219,올림픽공원,37.52034113915062,127.11551844445054,서울특별시 송파구 올림픽로 424,영화관/공연장,264082,자동 판매기,
26646,27260,용강동주민센터,37.54288597286293,126.940349545978,서울특별시 마포구 토정로27길 14,지역자치센터,264395,자동 판매기,
26663,27272,용마문화복지센터,37.58700426419113,127.09518724840542,서울특별시 중랑구 용마산로 393 (면목동),복지시설,264530,자동 판매기,
26683,27288,용산경찰서 원효지구대,37.538902625067685,126.96501453114469,서울특별시 용산구 백범로 329,경찰서,264688,자동 판매기,
26692,27291,용산구보건소,37.53245265481936,126.99047825509771,서울특별시 용산구 녹사평대로 150,보건소,264723,자동 판매기,
26711,27296,용산문화원,37.53342351659932,126.95186116423416,서울특별시 용산구 효창원로8길  28,영화관/공연장,264792,자동 판매기,
26976,27507,월곡종합사회복지관,37.60890914248347,127.03751435901276,서울특별시 성북구 오패산로16길 23,복지시설,266537,자동 판매기,
27058,27544,위드 자립생활센터,37.60680802070691,126.90935833499806,서울특별시 은평구 갈현로15길 11-13,복지시설,266855,자동 판매기,
27209,27615,유타몰,37.59257350035878,127.01708860457896,서울특별시 성북구 동소문로 106,영화관/공연장,267403,자동 판매기,
27248,27632,윤당빌딩,37.52565466934934,127.03373034442323,서울특별시 강남구 언주로  844,영화관/공연장,267560,자동 판매기,
27738,28000,자양 3세대 종합복지센터,37.53289759581719,127.07523308742977,서울특별시 광진구 자양번영로 35,복지시설,270502,자동 판매기,
27781,28021,작은예수의집,37.62334744599632,126.9261393807284,서울특별시 은평구 연서로37길 21-5,복지시설,270747,자동 판매기,
27796,28022,잔디네집,37.560388421927684,126.91865467935726,서울특별시 마포구 월드컵북로8길  41,복지시설,270768,자동 판매기,
27806,28027,잠실2동주민센터,37.51189140814292,127.08854058925074,서울특별시 송파구 올림픽로 159,지역자치센터,270832,자동 판매기,
27815,28029,잠실4동주민센터 개방화장실,37.52014216775801,127.11256344446915,서울특별시 송파구 올림픽로35길 12,지역자치센터,270859,자동 판매기,
27863,28066,장안종합복지관,37.567951852620475,127.06617220033043,서울특별시 동대문구 한천로18길  48,복지시설,271201,자동 판매기,
27880,28072,장애인사랑의쉼터의집,37.550367907036325,127.12435547520664,서울특별시 강동구 상암로7길 24,복지시설,271264,자동 판매기,
27893,28073,장애인전산교육장,37.48987837592232,126.88655929809906,서울특별시 구로구 구로동로26길 54,복지시설,271285,자동 판매기,
27910,28075,장애인주간보호시설,37.43525843377429,126.90641540220813,서울특별시 금천구 시흥대로2길 57,복지시설,271329,자동 판매기,
27928,28094,장지동주민센터,37.48696457375932,127.13243656178442,서울특별시 송파구 새말로19길 6,지역자치센터,271517,자동 판매기,
28036,28188,정릉종합사회복지관,37.609307840329926,127.00476123686786,서울특별시 성북구 솔샘로5길  2,복지시설,272323,자동 판매기,
28295,28383,"주몽 학교,주몽재활원",37.55047667562073,127.12713048064495,서울특별시 강동구 상암로 36,복지시설,273920,자동 판매기,
28360,28426,중계종합사회복지관,37.65609213052153,127.07496737302755,서울특별시 노원구 덕릉로 662,복지시설,274269,자동 판매기,
28395,28458,중랑구립 면목정보도서관,37.5872299258896,127.08767416205816,서울특별시 중랑구 면목로 397 (면목동),도서관,274663,자동 판매기,
28412,28460,중랑구립직업재활센터,37.61735834591804,127.08366362562721,서울특별시 중랑구 숙선옹주로9길 55 (묵동),복지시설,274690,자동 판매기,
28427,28464,중랑노인종합복지관,37.58843333651904,127.07784326623634,서울특별시 중랑구 겸재로9길 45 (면목동),복지시설,274751,자동 판매기,
28450,28486,중앙대우체국,37.50472130990483,126.9522279373572,서울특별시 동작구 흑석로14다길 7,우체국,275006,자동 판매기,
28487,28516,중화1치안센터,37.60116122731628,127.07981335683844,서울특별시 중랑구 동일로 792 (중화동),경찰서,275309,자동 판매기,
28507,28520,중화문화복지센터,37.59501969440208,127.07489247448136,서울특별시 중랑구 중랑역로3길 28,복지시설,275360,자동 판매기,
28570,28569,진관지구대 ,37.6399473837023,126.92085216925652,서울특별시 은평구 진관3로  38,경찰서,275781,자동 판매기,
28623,28617,참사랑너나울주간센터,37.64098042526975,127.02481335350059,서울특별시 강북구 한천로143길 3,복지시설,276147,자동 판매기,
28704,28681,창신 모자원,37.48985843949111,126.84111705028654,서울특별시 구로구 오류로8나길 28,복지시설,276736,자동 판매기,
28779,28753,천호3 치안센터,37.53788382705582,127.12758431471909,서울특별시 강동구 천호대로159길 7,경찰서,277245,자동 판매기,
28812,28795,청룡동자치회관,37.48134296199308,126.94613750493556,서울특별시 관악구 청룡길  12-3,지역자치센터,277607,자동 판매기,
28832,28805,청소년랜드,37.64821330621304,127.02583105275372,서울특별시 도봉구 노해로 144,복지시설,277716,자동 판매기,
28844,28806,청소년문화의집,37.65421670084514,127.02907870554549,서울특별시 도봉구 시루봉로2길 34,복지시설,277738,자동 판매기,
28862,28807,청소년문화회관,37.640738169163775,127.04065751021268,서울특별시 도봉구 덕릉로62길 8,복지시설,277759,자동 판매기,
28912,28840,청음회관,37.509660515785015,127.04336867118721,서울특별시 강남구 봉은사로54길 6,복지시설,278068,자동 판매기,
28957,28862,청회파출소,37.58346975665444,127.04495118675676,서울특별시 동대문구 약령시로21길  8,경찰서,278258,자동 판매기,
29038,28925,충현복지관,37.47400672167875,127.05027579224868,서울특별시 강남구 논현로8길 16,복지시설,278788,자동 판매기,
29275,29072,타임스퀘어(CGV영등포),37.517233707169474,126.90371599319953,서울특별시 영등포구 영중로  15,영화관/공연장,279816,자동 판매기,
29383,29127,태화기독교사회복지관,37.4848286534059,127.09339764688215,서울특별시 강남구 광평로 185,복지시설,280250,자동 판매기,
29484,29188,튼튼영어(유니북스 사옥),37.484288554654405,127.04231379470578,서울특별시 강남구 논현로  164,영화관/공연장,280744,자동 판매기,
29709,29278,평창동주민센터,37.60637367867771,126.96836687860072,서울특별시 종로구 평창문화로 65,지역자치센터,281390,자동 판매기,
29722,29286,평화종합사회복지관,37.646177365623295,127.06965899136732,서울특별시 노원구 노원로 331,복지시설,281452,자동 판매기,
29811,29334,프란체스코의집,37.647252268628186,127.01952147940388,서울특별시 강북구 노해로23길 88-18,복지시설,281856,자동 판매기,
29935,29379,피카다리플러스,37.57102624835606,126.99122950203235,서울특별시 종로구 돈화문로5가길 1,영화관/공연장,282200,자동 판매기,
29967,29390,필름포럼(빌딩),37.563776537733396,126.94409066661801,서울특별시 서대문구 성산로 527,영화관/공연장,282278,자동 판매기,
29985,29398,하계2 치안센터,37.631943035351576,127.06754758597204,서울특별시 노원구 공릉로55길 96,경찰서,282359,자동 판매기,
30101,29459,하상장애인복지관,37.49255430492796,127.07513380267449,서울특별시 강남구 개포로 613,복지시설,282829,자동 판매기,
30137,29500,하이해리엇,37.56126607811881,126.98536328312971,서울특별시 중구 퇴계로 123,영화관/공연장,283142,자동 판매기,
30152,29503,하트하트재단사옥,37.496937004755466,127.12575954295937,서울특별시 송파구 송이로23길 34,복지시설,283176,자동 판매기,
30323,29614,한국 시각장애인 복지관,37.55111217993112,127.16924768085251,서울특별시 강동구 구천면로 645,복지시설,284129,자동 판매기,
30341,29623,한국외국어대학교우체국,37.59829802897999,127.05794173534115,서울특별시 동대문구 이문로 107,우체국,284215,자동 판매기,
30472,29712,한빛효정,37.62948895668255,127.0161681118612,서울특별시 강북구 삼양로77길 38,복지시설,284929,자동 판매기,
30696,29860,해마을주간보호센터,37.49405188190481,127.07775877337164,서울특별시 강남구 개포로 617-8,복지시설,286094,자동 판매기,
30755,29909,행당제2동주민센터,37.558221571800146,127.0293492031456,서울특별시 성동구 행당로9길 9,지역자치센터,286498,자동 판매기,
31008,30020,개웅산공원 화장실,37.485145,126.847953,서울특별시 구로구 개봉동 산60-5,공중화장실,287378,자동 판매기,
31109,30035,온수체육공원 화장실,37.493255,126.819401,서울특별시 구로구 온수동 산10-4,공중화장실,287508,자동 판매기,
31119,30036,남구로시장 화장실,37.489768,126.88708799999999,서울특별시 구로구 구로4동 741-44,공중화장실,287527,자동 판매기,
31129,30037,뱀쇠다리 옆 화장실,37.489290999999994,126.87251100000002,서울특별시 구로구 구로동 689-8,공중화장실,287541,자동 판매기,
31148,30039,덕의근린공원 화장실,37.506931,126.856076,서울특별시 구로구 고척동 339-4,공중화장실,287565,자동 판매기,
31723,30131,산성 화장실 화장실,37.477614,127.124945,서울특별시 송파구 마천동 277-30,공중화장실,288228,자동 판매기,
31760,30138,가윤빌딩 화장실,37.485902,127.13243100000001,서울특별시 송파구 가락동 124-4,공중화장실,288264,자동 판매기,
31785,30141,로데오 상점가-취약지역 화장실,37.493745000000004,127.144305,서울특별시 송파구 문정동 29-24,공중화장실,288290,자동 판매기,
31801,30143,향군회관A동 화장실,37.495843,127.124748,서울특별시 송파구 신천동 7-29,공중화장실,288318,자동 판매기,
31816,30144,학수(현충) 화장실,37.4926707943,126.966637299,서울특별시 동작구 사당동 산22-16,공중화장실,288333,자동 판매기,
31843,30147,동성빌딩 화장실,37.53595,127.116069,서울특별시 송파구 방이동 64-1,공중화장실,288373,자동 판매기,
31909,30156,청호빌딩 화장실,37.522388,127.10296699999999,서울특별시 송파구 석촌동 174-12,공중화장실,288469,자동 판매기,
31914,30157,신우빌딩 화장실,37.506227,127.131651,서울특별시 송파구 석촌동 296-2,공중화장실,288482,자동 판매기,
31928,30158,세븐스타빌딩 화장실,37.510861,127.11022700000001,서울특별시 송파구 잠실동 19-8,공중화장실,288494,자동 판매기,
31933,30159,민성빌딩 화장실,37.499311999999996,127.097053,서울특별시 송파구 잠실동 222-5,공중화장실,288505,자동 판매기,
31951,30161,우진빌딩 화장실,37.502383,127.094292,서울특별시 송파구 송파동 147-1,공중화장실,288520,자동 판매기,
31961,30162,아이티벤처타워 화장실,37.475386,127.12756999999999,서울특별시 송파구 가락동 78,공중화장실,288534,자동 판매기,
31970,30163,파크인수빌딩 화장실,37.506586,127.08099399999999,서울특별시 송파구 잠실본동 230,공중화장실,288548,자동 판매기,
32046,30174,장미상가 A 화장실,37.506276,127.109292,서울특별시 송파구 신천동 7,공중화장실,288645,자동 판매기,
32056,30175,장미상가 B 화장실,37.50293900000001,127.12808400000002,서울특별시 송파구 신천동 7,공중화장실,288659,자동 판매기,
32066,30176,잠실지하 상가 화장실,37.51459000000001,127.114434,서울특별시 송파구 잠실동,공중화장실,288673,자동 판매기,
32076,30177,갤러리아팰리스 화장실,37.510961,127.12395500000001,서울특별시 송파구 잠실동 40,공중화장실,288687,자동 판매기,
32087,30179,롯데마트 송파점 화장실,37.513279,127.094223,서울특별시 송파구 문정동 150-2,공중화장실,288703,자동 판매기,
32098,30180,삼성홈플러스 화장실,37.514129,127.088424,서울특별시 송파구 신천동 7-12,공중화장실,288716,자동 판매기,
32107,30181,롯데백화점 화장실,37.506146,127.084383,서울특별시 송파구 잠실동 40-1,공중화장실,288729,자동 판매기,
32123,30184,가든파이브(툴) 화장실,37.490097,127.124133,서울특별시 송파구 문정동 628,공중화장실,288748,자동 판매기,
32167,30189,트레져오일몽촌주유소 화장실,37.510334,127.101129,서울특별시 송파구 방이동 107-8,공중화장실,288796,자동 판매기,
32202,30195,인광주유소 화장실,37.50763,127.109816,서울특별시 송파구 석촌동 295,공중화장실,288839,자동 판매기,
32224,30199,올림픽주유소(셀프) 화장실,37.502767999999996,127.097991,서울특별시 송파구 오금동 4,공중화장실,288871,자동 판매기,
32251,30202,남성대주유소 화장실,37.511283,127.097926,서울특별시 송파구 장지동 645-13,공중화장실,288906,자동 판매기,
32269,30204,우리주유소 화장실,37.516252,127.103021,"서울특별시 송파구 가락2동 137-9, 11",공중화장실,288930,자동 판매기,
32289,30207,송파주유소(셀프) 화장실,37.520051,127.10381000000001,서울특별시 송파구 거여동 26-1,공중화장실,288956,자동 판매기,
32444,30234,송파어린이영어작은도서관 화장실,37.492335,127.156625,서울특별시 송파구 신천동 14,공중화장실,289126,자동 판매기,
32456,30235,송파여성문화회관 화장실 화장실,37.489731,127.111309,서울특별시 송파구 송파동 113-2,공중화장실,289139,자동 판매기,
32465,30236,비계(현충) 화장실,37.5031984473,126.96769570299999,서울특별시 동작구 동작동 산42-1,공중화장실,289156,자동 판매기,
32488,30239,가락종합사회복지관 화장실,37.51894,127.115517,서울특별시 송파구 가락동 481-2,공중화장실,289180,자동 판매기,
32674,30269,송파2동주민센터 화장실,37.513884000000004,127.106397,서울특별시 송파구 송파2동 173,공중화장실,289407,자동 판매기,
32708,30274,가락2동주민센터 화장실,37.507311,127.093828,서울특별시 송파구 가락2동 154,공중화장실,289459,자동 판매기,
32729,30277,장지동주민센터 화장실,37.502708,127.09276100000001,서울특별시 송파구 문정동 114-4,공중화장실,289482,자동 판매기,
32856,30297,올림픽공원-수영경기장 화장실,37.50078,127.131782,서울특별시 송파구 오륜동 88-2,공중화장실,289647,자동 판매기,
32883,30302,선수촌올림픽스포츠센타 화장실,37.502331,127.12300400000001,서울특별시 송파구 오륜동 88-2,공중화장실,289680,자동 판매기,
32911,30305,올림픽공원-수영장(옥외화장실) 화장실,37.49355,127.146817,서울특별시 송파구 오륜동 88-2,공중화장실,289712,자동 판매기,
32933,30308,올림픽공원-에어돔(옥외화장실) 화장실,37.529058,127.11038300000001,서울특별시 송파구 오륜동 88-2,공중화장실,289744,자동 판매기,
32942,30309,올림픽공원-P1주차장(옥외화장실) 화장실,37.533822,127.12117099999999,서울특별시 송파구 오륜동 88-2,공중화장실,289758,자동 판매기,
32983,30315,삼일빌딩 화장실,37.4733373,126.87804550000001,서울특별시 금천구 독산1동 148-17,공중화장실,289813,자동 판매기,
32992,30316,효연빌딩 화장실,37.4761203,126.87561559999999,서울특별시 금천구 가산동 151-30,공중화장실,289827,자동 판매기,
33071,30326,시흥1동 주민센터 화장실,37.4535401,126.8944932,서울특별시 금천구 시흥동 886-6,공중화장실,289934,자동 판매기,
33196,30347,1호선 금천구청역 화장실,37.4558127,126.8856088,서울특별시 금천구 시흥동 113-55,공중화장실,290074,자동 판매기,
33207,30348,1호선 독산역 화장실,37.465657,126.88103829999999,서울특별시 금천구 가산동 717,공중화장실,290085,자동 판매기,
33223,30350,가산우체국 화장실,37.478413700000004,126.88504409999999,서울특별시 금천구 가산동 146-61,공중화장실,290105,자동 판매기,
33231,30351,구로세관 화장실,37.471919299999996,126.8758764,서울특별시 금천구 가산동 319-25,공중화장실,290119,자동 판매기,
33271,30357,kt 금천전화국 화장실,37.446391799999994,126.8942675,서울특별시 금천구 시흥동 985-14,공중화장실,290161,자동 판매기,
