,place_id,place_name,lat,lng,place_address,category,facility_id,facility_available_name,facility_is_available
407,10000,A아트홀(구.신연아트홀),37.58326870000001,127.002443,서울특별시 종로구 동숭동 1-37,영화관/공연장,100001,주출입구 높이차이 제거,이용가능
410,10001,BBC씨어터,37.5239298,127.0251432,서울특별시 강남구 신사동  568-2,영화관/공연장,100004,주출입구 높이차이 제거,이용가능
420,10005,CGV 강남,37.501621,127.0263906,서울특별시 강남구 역삼동 814-6 스타플렉스 4-11층,영화관/공연장,100014,주출입구 높이차이 제거,이용가능
426,10007,CGV 상암,37.569950899999995,126.899029,서울특별시 마포구 월드컵로 240,영화관/공연장,100020,주출입구 높이차이 제거,이용가능
429,10008,CGV 송파,37.4787378,127.1211166,서울특별시 송파구 문정동 294 가든파이브 라이프 YOUNG관 10층,영화관/공연장,100023,주출입구 높이차이 제거,이용가능
435,10009,CGV강변,37.52845170000001,127.1253784,서울특별시 강동구 성내로 48,영화관/공연장,100029,주출입구 높이차이 제거,이용가능
442,10010,CGV구로,37.5011769,126.8828472,서울특별시 구로구 구로중앙로 152,영화관/공연장,100034,주출입구 높이차이 제거,이용가능
445,10011,CGV군자,37.5558098,127.0783645,서울특별시 광진구 능동로  289,영화관/공연장,100039,주출입구 높이차이 제거,이용불편
449,10012,CGV대학로,37.570650799999996,126.9729916,서울특별시 종로구 새문안로 75,영화관/공연장,100043,주출입구 높이차이 제거,이용가능
454,10013,CGV목동,37.5265922,126.8744517,서울특별시 양천구 목동동로 257,영화관/공연장,100048,주출입구 높이차이 제거,이용가능
459,10014,CGV불광,37.60974,126.92896809999999,서울특별시 은평구 불광로  20,영화관/공연장,100053,주출입구 높이차이 제거,이용가능
464,10015,CGV신촌아트레온,37.556540399999996,126.9402938,서울특별시 서대문구 신촌로  129,영화관/공연장,100058,주출입구 높이차이 제거,이용가능
468,10016,CGV신한카드아트홀(구 CGV팝아트홀),37.5170517,126.90333319999999,서울특별시 영등포구 영등포동 4가 442번지 타임스퀘어내 CGV팝아트홀 7층,영화관/공연장,100063,주출입구 높이차이 제거,이용가능
474,10017,CGV압구정,37.5243665,127.0294163,서울특별시 강남구 압구정로30길  45,영화관/공연장,100068,주출입구 높이차이 제거,이용가능
478,10018,CGV영등포,37.529261299999995,126.9249062,서울특별시 영등포구 여의공원로 101,영화관/공연장,100072,주출입구 높이차이 제거,이용가능
485,10021,GS타워 소극장,37.5015494,127.03731770000002,서울특별시 강남구 역삼1동 679-1 GS타워 25층,영화관/공연장,100079,주출입구 높이차이 제거,이용가능
489,10022,JW 메리어트호텔 그랜드볼룸,37.504322200000004,127.00353829999999,서울특별시 서초구 반포동 19-3 메리어트호텔,영화관/공연장,100083,주출입구 높이차이 제거,이용가능
496,10024,LIG아트홀,37.49920529999999,127.0302669,서울특별시 강남구 테헤란로  117,영화관/공연장,100091,주출입구 높이차이 제거,이용가능
503,10037,국립극장,37.5529157,127.00006680000001,서울특별시 중구 장충동2가 14-67번지,영화관/공연장,100118,주출입구 높이차이 제거,이용가능
512,10038,국립중앙박물관 극장 용,37.5202471,126.9824662,서울특별시 용산구 용산동 6가 168-6번지,영화관/공연장,100122,주출입구 높이차이 제거,이용불편
515,10039,그랜드 앰배서더 서울 그랜드 볼룸,37.5601325,127.00231000000001,서울특별시 중구 장충동 2가 186-54,영화관/공연장,100128,주출입구 높이차이 제거,이용불편
519,10040,그랜드하얏트서울 그랜드볼룸,37.53955,126.9977202,서울특별시 용산구 한남동 747-7,영화관/공연장,100132,주출입구 높이차이 제거,이용가능
521,10041,그랜드힐튼호텔 컨벤션홀,37.5885865,126.934996,서울특별시 서대문구 연희로 353,영화관/공연장,100135,주출입구 높이차이 제거,이용가능
525,10042,금호아트홀,37.58347070000001,126.99985490000002,서울특별시 종로구 대명길 28,영화관/공연장,100139,주출입구 높이차이 제거,이용가능
531,10044,나루아트센터,37.5374246,127.070453,서울특별시 광진구 능동로 76 (자양동),영화관/공연장,100144,주출입구 높이차이 제거,이용가능
541,10047,난타전용관(홍대),37.553188,126.92118020000001,"서울특별시 마포구 양화로16길 29 옐로우다이아몬드 지하 2,3층",영화관/공연장,100151,주출입구 높이차이 제거,이용가능
547,10060,대학로 웃찾사 전용관(구.Boom Box),37.5815943,127.0028104,서울특별시 종로구 동숭동 1-113번지 지하 1층,영화관/공연장,100163,주출입구 높이차이 제거,이용가능
552,10061,대학로예술극장,37.582072499999995,127.0031764,서울특별시 종로구 대학로10길 17,영화관/공연장,100166,주출입구 높이차이 제거,이용가능
554,10062,대한극장,37.559878499999996,126.9671041,서울특별시 중구 청파로 463,영화관/공연장,100170,주출입구 높이차이 제거,이용가능
558,10064,동숭아트센터,37.5837122,127.0037278,서울특별시 종로구 동숭길 122,영화관/공연장,100174,주출입구 높이차이 제거,이용가능
562,10065,동영아트홀 (구 계몽아트홀),37.497800399999996,127.0441092,서울특별시 강남구 역삼동 772,영화관/공연장,100179,주출입구 높이차이 제거,이용불편
567,10066,디마떼오홀,37.5801365,127.0039895,서울특별시 종로구 동숭동 1-141,영화관/공연장,100183,주출입구 높이차이 제거,이용가능
570,10068,라트어린이극장,37.484263399999996,127.0421783,서울특별시 강남구 도곡동 514-1,영화관/공연장,100186,주출입구 높이차이 제거,이용가능
575,10069,레진코믹스 브이홀,37.55441500000001,126.92196609999999,서울특별시 마포구 홍익로 25 서교호텔별관 지하,영화관/공연장,100190,주출입구 높이차이 제거,이용불편
581,10071,롯데몰 김포공항점,37.571369399999995,126.80296000000001,서울특별시 강서구 하늘길  38,영화관/공연장,100195,주출입구 높이차이 제거,이용가능
584,10072,롯데백화점 노원점,37.655043400000004,127.06109709999998,서울특별시 노원구 동일로 1414,영화관/공연장,100200,주출입구 높이차이 제거,이용가능
589,10073,롯데시네마 강동,37.5366479,127.1253571,서울특별시 강동구 천호옛길 85,영화관/공연장,100205,주출입구 높이차이 제거,이용가능
594,10074,롯데시네마 강동관,37.536654999999996,127.125348,서울특별시 강동구 성내동 44-1,영화관/공연장,100210,주출입구 높이차이 제거,이용가능
599,10075,롯데시네마 건대입구관,37.537510499999996,127.0725939,서울특별시 광진구 아차산로 262 (자양동),영화관/공연장,100215,주출입구 높이차이 제거,이용가능
602,10076,롯데시네마 누리꿈(상암),37.57917910000001,126.8903547,서울특별시 마포구 월드컵북로 396 누리꿈스퀘어빌딩 디지털파빌리온 4층,영화관/공연장,100218,주출입구 높이차이 제거,이용가능
607,10078,롯데시네마 브로드웨이,37.5163809,127.021971,서울특별시 강남구 도산대로8길 8,영화관/공연장,100223,주출입구 높이차이 제거,이용가능
611,10079,롯데시네마 씨티(강남),37.5003768,127.0269314,서울특별시 강남구 역삼동 816,영화관/공연장,100227,주출입구 높이차이 제거,이용불편
616,10082,롯데시네마 피카디리관,37.571043700000004,126.9912115,서울특별시 종로구 돈의동 137,영화관/공연장,100240,주출입구 높이차이 제거,이용가능
620,10083,롯데시네마 합정,37.548932799999996,126.91367439999999,서울특별시 마포구 양화로 45,영화관/공연장,100244,주출입구 높이차이 제거,이용가능
626,10084,롯데시네마 홍대입구,37.5572394,126.9249811,서울특별시 마포구 양화로  176,영화관/공연장,100248,주출입구 높이차이 제거,이용가능
629,10086,롯데시네마 황학,37.571029100000004,127.0212194,서울특별시 중구 황학동 2545 롯데캐슬 베네치아 1층 1222~4호,영화관/공연장,100257,주출입구 높이차이 제거,이용가능
632,10088,루나틱전용관,37.580126299999996,127.0042551,서울특별시 종로구 동숭동 1-150 지하1층,영화관/공연장,100260,주출입구 높이차이 제거,이용가능
636,10089,르네상스 서울호텔,37.5032294,127.04149840000002,서울특별시 강남구 역삼동 676번지 3층,영화관/공연장,100264,주출입구 높이차이 제거,이용가능
637,10091,리츠칼튼 서울호텔 그랜드볼룸,37.50486710000001,127.0268226,"서울특별시 강남구 역삼동 602, The Ritz-Carlton, Seoul",영화관/공연장,100266,주출입구 높이차이 제거,이용가능
641,10092,마포아트센터,37.5499041,126.9455277,서울특별시 마포구 대흥로20길   28,영화관/공연장,100270,주출입구 높이차이 제거,이용가능
647,10093,메가박스 강남,37.4979429,127.0265303,서울특별시 서초구 서초동 1317-20 아라타워 8층 씨너스 강남,영화관/공연장,100275,주출입구 높이차이 제거,이용불편
651,10094,메가박스 동대문,37.5658032,127.0074043,서울특별시 중구 을지로6가 21,영화관/공연장,100279,주출입구 높이차이 제거,이용불편
656,10095,메가박스 목동,37.529139799999996,126.87601740000001,서울특별시 양천구 목동동로 309,영화관/공연장,100284,주출입구 높이차이 제거,이용가능
663,10096,메가박스 상봉,37.593086299999996,127.0747635,서울특별시 중랑구 망우로30길 3,영화관/공연장,100289,주출입구 높이차이 제거,이용가능
666,10098,메가박스 수유,37.6424093,127.0298017,서울특별시 강북구 도봉로 399,영화관/공연장,100297,주출입구 높이차이 제거,이용가능
670,10099,메가박스 신촌,37.559830700000006,126.9423898,서울특별시 서대문구 신촌역로  30,영화관/공연장,100301,주출입구 높이차이 제거,이용가능
677,10100,메가박스 아트나인,37.4848049,126.98168500000001,서울특별시 동작구 동작대로 89,영화관/공연장,100306,주출입구 높이차이 제거,이용가능
680,10101,메가박스 코엑스,37.512487799999995,127.058853,서울특별시 강남구 삼성동 159,영화관/공연장,100311,주출입구 높이차이 제거,이용불편
688,10104,명보아트홀,37.5647012,126.99321509999999,서울특별시 중구 초동 18-5,영화관/공연장,100323,주출입구 높이차이 제거,이용불편
692,10106,모차르트홀,37.486433899999994,127.00455159999999,서울특별시 서초구 서초3동 1515-3번지 모차르트빌딩 2층,영화관/공연장,100326,주출입구 높이차이 제거,이용가능
717,10121,상상마당 라이브홀,37.55094879999999,126.92106580000001,서울특별시 마포구 어울마당로 65,영화관/공연장,100351,주출입구 높이차이 제거,이용가능
723,10123,샤롯데씨어터,37.5119444,127.1009753,서울특별시 송파구 잠실동 41-1번지,영화관/공연장,100357,주출입구 높이차이 제거,이용가능
726,10124,서강대학교 메리홀,37.5517132,126.9410634,서울특별시 마포구 백범로 35 서강대학교 커뮤니케이션센터 메리홀 105호,영화관/공연장,100360,주출입구 높이차이 제거,이용가능
733,10126,서울 잠실 학생체육관,37.5121532,127.0754598,서울특별시 송파구 잠실1동 10-3 종합운동장 내,영화관/공연장,100367,주출입구 높이차이 제거,이용가능
738,10127,서울교육문화회관 대극장,37.4669827,127.03253959999999,서울특별시 서초구 양재2동 202번지,영화관/공연장,100372,주출입구 높이차이 제거,이용가능
743,10128,서울극장,37.572185,126.97686609999998,서울특별시 종로구 세종대로 175,영화관/공연장,100376,주출입구 높이차이 제거,이용가능
747,10129,서울놀이마당,37.5077131,127.10058300000001,서울특별시 송파구 잠실동 47번지,영화관/공연장,100381,주출입구 높이차이 제거,이용가능
753,10131,서울애니시네마,37.5584252,126.9879469,서울특별시 중구 예장동8-145,영화관/공연장,100387,주출입구 높이차이 제거,이용불편
755,10133,서울패션아트홀,37.567161,127.01213200000001,서울특별시 중구 신당동 251-7번지 서울패션센터 5층 서울패션아트홀,영화관/공연장,100390,주출입구 높이차이 제거,이용가능
759,10135,세라믹팔레스홀,37.4857831,127.08235330000001,서울특별시 강남구 일원동 713,영화관/공연장,100395,주출입구 높이차이 제거,이용가능
763,10137,세익스피어 극장,37.580551299999996,127.0042271,서울특별시 종로구 동숭동 1-147,영화관/공연장,100397,주출입구 높이차이 제거,이용가능
768,10139,세종문화회관,37.5764761,127.0039365,서울특별시 종로구 이화장길 26,영화관/공연장,100402,주출입구 높이차이 제거,이용가능
774,10144,송파 청소년 수련관,37.48957720000001,127.1107344,서울특별시 송파구 문정동 150-8,영화관/공연장,100410,주출입구 높이차이 제거,이용가능
778,10146,숭실대학교 한경직기념관 대강당,37.496251799999996,126.95731509999999,서울특별시 동작구 상도로369 숭실대학교,영화관/공연장,100412,주출입구 높이차이 제거,이용가능
781,10147,쉐라톤그랜드워커힐호텔 워커힐씨어터,37.5586439,127.1117098,서울특별시 광진구 워커힐로 177 (광장동),영화관/공연장,100415,주출입구 높이차이 제거,이용가능
786,10148,스폰지하우스(광화문),37.5680265,126.97593810000001,서울특별시 중구 태평로1가 61-21,영화관/공연장,100420,주출입구 높이차이 제거,이용가능
788,10149,시티렉스(CT-LEX),37.4692769,126.89707630000001,서울특별시 금천구 시흥대로 399,영화관/공연장,100423,주출입구 높이차이 제거,이용가능
798,10155,아티움,37.51289860000001,127.0571338,서울특별시 강남구 봉은사로  524,영화관/공연장,100439,주출입구 높이차이 제거,이용가능
802,10157,암사어린이극장,37.5634651,127.13338459999999,서울특별시 강동구 암사동116-22 (암사동 선사유적지 근처),영화관/공연장,100445,주출입구 높이차이 제거,이용가능
810,10161,양재동 aT센터(농수산물유통공사),37.4681722,127.03932250000001,서울특별시 서초구 양재동 232번지 aT센터,영화관/공연장,100453,주출입구 높이차이 제거,이용가능
815,10162,역삼1문화센터,37.4952786,127.03324099999999,서울특별시 강남구 역삼동 829-20,영화관/공연장,100458,주출입구 높이차이 제거,이용가능
820,10163,연세대학교 노천극장,37.564936700000004,126.9383335,서울특별시 서대문구 연세로 50 연세대학교 노천극장,영화관/공연장,100464,주출입구 높이차이 제거,이용가능
825,10166,영산아트홀,37.5172195,126.90392949999999,서울특별시 영등포구 영중로  15,영화관/공연장,100477,주출입구 높이차이 제거,이용불편
830,10168,예술마당,37.5710325,126.9912412,서울특별시 종로구 돈화문로5가길 1,영화관/공연장,100487,주출입구 높이차이 제거,이용가능
834,10169,예술의 전당,37.4810878,127.0152555,서울특별시 서초구 서초동 700,영화관/공연장,100492,주출입구 높이차이 제거,이용가능
840,10174,올림픽 예술극장 (K-아트홀 태권도공연장),37.52098270000001,127.11609140000002,서울특별시 송파구 방이동 88 올림픽공원 올림픽문화센터 내,영화관/공연장,100501,주출입구 높이차이 제거,이용가능
847,10175,용산아트홀,37.532505799999996,126.99011329999999,서울특별시 용산구 이태원동 34-87,영화관/공연장,100506,주출입구 높이차이 제거,이용가능
852,10178,유니버설아트센터,37.5500833,127.0877013,서울특별시 광진구 천호대로 664 (능동),영화관/공연장,100513,주출입구 높이차이 제거,이용불편
855,10180,유시어터,37.522243100000004,127.04127790000001,서울특별시 강남구 청담동 22-13 청담빌딩,영화관/공연장,100517,주출입구 높이차이 제거,이용가능
863,10186,이화여대 대강당,37.561777299999996,126.9466193,서울특별시 서대문구 이화여대길 52,영화관/공연장,100524,주출입구 높이차이 제거,이용가능
869,10190,임페리얼 팰리스호텔 두베홀,37.5141005,127.0359818,서울특별시 강남구 논현동 248-7,영화관/공연장,100534,주출입구 높이차이 제거,이용가능
879,10195,장충체육관,37.5581292,127.00690290000001,서울특별시 중구 장충동2가 200-102,영화관/공연장,100551,주출입구 높이차이 제거,이용불편
883,10198,점프 서울전용극장,37.5696849,126.99167479999998,서울특별시 종로구 돈화문로 13 서울극장 5층,영화관/공연장,100558,주출입구 높이차이 제거,이용가능
890,10201,중앙대학교 아트센터 대극장,37.5048875,126.95737790000001,서울특별시 동작구 흑석로84 중앙대학교 내,영화관/공연장,100571,주출입구 높이차이 제거,이용불편
899,10204,충무아트홀,37.5659416,126.97285149999999,서울특별시 중구 정동길 43,영화관/공연장,100579,주출입구 높이차이 제거,이용가능
902,10209,프라디아(FRADIA),37.5190391,127.00804699999999,서울특별시 서초구 잠원동 121-9,영화관/공연장,100588,주출입구 높이차이 제거,이용가능
903,10211,플래툰 쿤스트할레,37.520555,127.0349185,서울특별시 강남구 논현동 97-22,영화관/공연장,100591,주출입구 높이차이 제거,이용가능
908,10212,한국문화의 집 코우스,37.5068447,127.06049329999999,서울특별시 강남구 대치동 944-22,영화관/공연장,100594,주출입구 높이차이 제거,이용가능
913,10213,한국불교역사문화기념관,37.573899,126.9823254,서울특별시 종로구 견지동 45,영화관/공연장,100599,주출입구 높이차이 제거,이용가능
919,10217,허리우드극장,37.5725838,126.9878031,서울특별시 종로구 낙원동 284-6 낙원상가4층,영화관/공연장,100610,주출입구 높이차이 제거,이용불편
922,10218,현대·기아자동차 아트홀,37.464364,127.042859,서울특별시 서초구 양재동 231 (헌릉로 12),영화관/공연장,100612,주출입구 높이차이 제거,이용불편
927,10219,호암아트홀,37.5615747,126.97106720000001,서울특별시 중구 순화동 7 중앙일보사 건물 호암 아트홀,영화관/공연장,100617,주출입구 높이차이 제거,이용불편
934,10221,홍대 비보이 전용극장,37.5535113,126.92675190000001,서울특별시 마포구 와우산로 121 삼진제약BD 지하1층,영화관/공연장,100623,주출입구 높이차이 제거,이용가능
939,10227,홍대앞 김대범 소극장,37.5534989,126.92643319999999,서울특별시 마포구 와우산로 117 이지플러스 오피스텔 지하1층,영화관/공연장,100629,주출입구 높이차이 제거,이용가능
942,10228,2001아울렛중계점,37.6412768,127.0678895,서울특별시 노원구 동일로204가길 46,수퍼마켓·일용품 등의 도매·소매시장,100633,주출입구 높이차이 제거,이용불편
948,10229,2441아울렛천호점,37.541349,127.125782,서울특별시 강동구 구천면로 189,수퍼마켓·일용품 등의 도매·소매시장,100638,주출입구 높이차이 제거,이용가능
951,10230,ABC마트,37.5631868,126.98445509999999,서울특별시 중구 명동8길  12,수퍼마켓·일용품 등의 도매·소매시장,100643,주출입구 높이차이 제거,이용불편
954,10231,G 마트,37.5509804,127.13956540000001,서울특별시 강동구 구천면로 365-8,수퍼마켓·일용품 등의 도매·소매시장,100644,주출입구 높이차이 제거,이용불편
956,10232,GS 슈퍼마켓,37.548108899999995,127.1349305,서울특별시 강동구 구천면로  317,수퍼마켓·일용품 등의 도매·소매시장,100646,주출입구 높이차이 제거,이용가능
958,10233,GS슈퍼마트,37.56796470000001,126.81003840000001,서울특별시 강서구 초원로  37,수퍼마켓·일용품 등의 도매·소매시장,100648,주출입구 높이차이 제거,이용가능
960,10234,GS슈퍼상계점,37.664194200000004,127.0658291,서울특별시 노원구 한글비석로 471,수퍼마켓·일용품 등의 도매·소매시장,100651,주출입구 높이차이 제거,이용가능
965,10236,LG베스트,37.599282099999996,127.0347221,서울특별시 성북구 종암로 102,수퍼마켓·일용품 등의 도매·소매시장,100655,주출입구 높이차이 제거,이용가능
967,10237,LG베스트샵,37.601245,126.9245912,서울특별시 은평구 은평로 153,수퍼마켓·일용품 등의 도매·소매시장,100657,주출입구 높이차이 제거,이용가능
969,10241,LG전자,37.5299298,127.1207449,서울특별시 강동구 올림픽로 542,수퍼마켓·일용품 등의 도매·소매시장,100665,주출입구 높이차이 제거,이용불편
971,10243,LG프라자,37.4948946,127.1237467,서울특별시 송파구 중대로 142,수퍼마켓·일용품 등의 도매·소매시장,100669,주출입구 높이차이 제거,이용가능
972,10244,LG하이프라자,37.5388294,127.0556655,서울특별시 성동구 뚝섬로  403,수퍼마켓·일용품 등의 도매·소매시장,100672,주출입구 높이차이 제거,이용불편
979,10245,NC백화점,37.55993370000001,126.8405133,서울특별시 강서구 강서로56길 17,수퍼마켓·일용품 등의 도매·소매시장,100675,주출입구 높이차이 제거,이용가능
981,10246,SM마트창동점,37.6430031,127.0374676,서울특별시 도봉구 덕릉로63가길 60,수퍼마켓·일용품 등의 도매·소매시장,100679,주출입구 높이차이 제거,이용가능
985,10247,W-MALL,37.4773527,126.88771840000001,서울특별시 금천구 디지털로 188,수퍼마켓·일용품 등의 도매·소매시장,100682,주출입구 높이차이 제거,이용가능
989,10248,가든파이브 NC백화점(LIFE관),37.4776846,127.1249925,서울특별시 송파구 충민로 66,수퍼마켓·일용품 등의 도매·소매시장,100687,주출입구 높이차이 제거,이용가능
994,10249,강서농수산물도매시장,37.553503899999995,126.820806,서울특별시 강서구 발산로  40,수퍼마켓·일용품 등의 도매·소매시장,100692,주출입구 높이차이 제거,이용가능
998,10250,강서농협하나로마트,37.576777299999996,126.8118723,서울특별시 강서구 금낭화로 287-10,수퍼마켓·일용품 등의 도매·소매시장,100696,주출입구 높이차이 제거,이용불편
1002,10251,갤러리아백화점WEST,37.5284803,127.0400742,서울특별시 강남구 압구정로 343,수퍼마켓·일용품 등의 도매·소매시장,100701,주출입구 높이차이 제거,이용가능
1007,10252,관악농협(금천점),37.450796200000006,126.9102489,서울특별시 금천구 탑골로  2,수퍼마켓·일용품 등의 도매·소매시장,100705,주출입구 높이차이 제거,이용불편
1010,10253,관악프라자,37.483625,126.9552125,서울특별시 관악구 관악로  212,수퍼마켓·일용품 등의 도매·소매시장,100708,주출입구 높이차이 제거,이용가능
1013,10254,광희시장,37.558949299999995,127.0092626,서울특별시 중구 동호로20길  24,수퍼마켓·일용품 등의 도매·소매시장,100711,주출입구 높이차이 제거,이용불편
1015,10255,국민마트,37.6434849,127.01645819999999,서울특별시 강북구 삼양로 450,수퍼마켓·일용품 등의 도매·소매시장,100714,주출입구 높이차이 제거,이용가능
1017,10256,그랜드마트,37.56018510000001,126.839298,서울특별시 강서구 강서로  388,수퍼마켓·일용품 등의 도매·소매시장,100717,주출입구 높이차이 제거,이용가능
1021,10257,꿈꾸는청년가게,37.561918,126.9867969,서울특별시 중구 명동8가길 31,수퍼마켓·일용품 등의 도매·소매시장,100721,주출입구 높이차이 제거,이용불편
1026,10258,농협관악농산물백화점,37.4800727,126.9028666,서울특별시 관악구 남부순환로 1369,수퍼마켓·일용품 등의 도매·소매시장,100724,주출입구 높이차이 제거,이용가능
1031,10259,농협하나로마트,37.6059513,127.09566909999998,서울특별시 중랑구 신내로  74,수퍼마켓·일용품 등의 도매·소매시장,100729,주출입구 높이차이 제거,이용가능
1035,10260,더브러마트,37.66066370000001,127.02437749999999,서울특별시 도봉구 방학로15길 19,수퍼마켓·일용품 등의 도매·소매시장,100733,주출입구 높이차이 제거,이용가능
1036,10261,도림시장,37.5099223,126.8984578,서울특별시 영등포구 도영로 50,수퍼마켓·일용품 등의 도매·소매시장,100736,주출입구 높이차이 제거,이용가능
1040,10262,독산동 하이마트,37.467890600000004,126.897208,서울특별시 금천구 시흥대로  385,수퍼마켓·일용품 등의 도매·소매시장,100738,주출입구 높이차이 제거,이용불편
1043,10263,두리마트,37.613557,127.07526100000001,서울특별시 중랑구 중랑역로 225,수퍼마켓·일용품 등의 도매·소매시장,100741,주출입구 높이차이 제거,이용가능
1046,10265,럭키마트,37.6311251,127.01617150000001,서울특별시 강북구 삼양로79길 24-17,수퍼마켓·일용품 등의 도매·소매시장,100744,주출입구 높이차이 제거,이용불편
1048,10266,럭키할인마트,37.6557362,127.04354840000002,서울특별시 도봉구 해등로16길   63,수퍼마켓·일용품 등의 도매·소매시장,100746,주출입구 높이차이 제거,이용가능
1051,10267,로데오,37.517464600000004,126.8964926,서울특별시 영등포구 당산로   34,수퍼마켓·일용품 등의 도매·소매시장,100749,주출입구 높이차이 제거,이용불편
1055,10268,롯데마이수퍼,37.476157,126.97907409999999,서울특별시 관악구 남부순환로 2074,수퍼마켓·일용품 등의 도매·소매시장,100753,주출입구 높이차이 제거,이용가능
1057,10269,롯데마이슈퍼,37.6087292,127.0191555,서울특별시 성북구 길음로13길 24,수퍼마켓·일용품 등의 도매·소매시장,100755,주출입구 높이차이 제거,이용가능
1060,10270,롯데마트,37.498315999999996,126.87275349999999,서울특별시 구로구 경인로 482,수퍼마켓·일용품 등의 도매·소매시장,100758,주출입구 높이차이 제거,이용가능
1063,10273,롯데마트 송파점,37.4917789,127.11788100000001,서울특별시 송파구 중대로 80,수퍼마켓·일용품 등의 도매·소매시장,100773,주출입구 높이차이 제거,이용가능
1069,10274,롯데마트999,37.646412299999994,127.03716399999999,서울특별시 도봉구 도봉로110길  65,수퍼마켓·일용품 등의 도매·소매시장,100777,주출입구 높이차이 제거,이용가능
1072,10275,롯데백화점 강남점,37.497040999999996,127.05321529999999,서울특별시 강남구 도곡로 401,수퍼마켓·일용품 등의 도매·소매시장,100780,주출입구 높이차이 제거,이용가능
1077,10276,롯데백화점 관악점,37.4904955,126.92497990000001,서울특별시 관악구 봉천로  209,수퍼마켓·일용품 등의 도매·소매시장,100785,주출입구 높이차이 제거,이용가능
1082,10277,롯데백화점 미아점,37.61459470000001,127.0305364,서울특별시 강북구 도봉로 62,수퍼마켓·일용품 등의 도매·소매시장,100790,주출입구 높이차이 제거,이용가능
1086,10278,롯데슈퍼,37.491830799999995,127.0252409,서울특별시 서초구 사임당로 143,수퍼마켓·일용품 등의 도매·소매시장,100794,주출입구 높이차이 제거,이용불편
1089,10280,롯데시네마 신림,37.4838632,126.930252,서울특별시 관악구 신림로  330,수퍼마켓·일용품 등의 도매·소매시장,100802,주출입구 높이차이 제거,이용가능
1093,10281,롯데호텔및백화점,37.5686997,127.01192649999999,서울특별시 중구 마장로1길 21,수퍼마켓·일용품 등의 도매·소매시장,100806,주출입구 높이차이 제거,이용불편
1097,10282,르네상스복합쇼핑몰,37.484779100000004,126.9300949,서울특별시 관악구 신림로  340,수퍼마켓·일용품 등의 도매·소매시장,100811,주출입구 높이차이 제거,이용가능
1102,10283,마리오아울렛3,37.47842,126.88502920000002,서울특별시 금천구 벚꽃로  266,수퍼마켓·일용품 등의 도매·소매시장,100815,주출입구 높이차이 제거,이용가능
1107,10284,마축일축산물시장,37.5706821,127.04129609999998,서울특별시 성동구 마장로35길  68,수퍼마켓·일용품 등의 도매·소매시장,100820,주출입구 높이차이 제거,이용가능
1110,10285,마포농수산물시장,37.5651843,126.8984946,서울특별시 마포구 월드컵로  235,수퍼마켓·일용품 등의 도매·소매시장,100823,주출입구 높이차이 제거,이용가능
1114,10286,메르체쇼핑몰,37.559004200000004,126.9451739,서울특별시 서대문구 이화여대길 59,수퍼마켓·일용품 등의 도매·소매시장,100827,주출입구 높이차이 제거,이용가능
1118,10287,명성마트,37.547782899999994,127.14512279999998,서울특별시 강동구 양재대로134길 27,수퍼마켓·일용품 등의 도매·소매시장,100831,주출입구 높이차이 제거,이용불편
1120,10288,모닝마트,37.47285770000001,126.90092079999998,서울특별시 금천구 독산로85길 40,수퍼마켓·일용품 등의 도매·소매시장,100833,주출입구 높이차이 제거,이용불편
1122,10289,북부농협<마트>,37.6572811,127.0383987,서울특별시 도봉구 해등로  166,수퍼마켓·일용품 등의 도매·소매시장,100835,주출입구 높이차이 제거,이용불편
1125,10290,빅마켓(롯데마트 영등포점),37.5278142,126.90469420000001,서울특별시 영등포구 영중로  125,수퍼마켓·일용품 등의 도매·소매시장,100838,주출입구 높이차이 제거,이용가능
1132,10291,빅마켓(롯데마트금천점),37.47063660000001,126.8956535,서울특별시 금천구 두산로 71,수퍼마켓·일용품 등의 도매·소매시장,100843,주출입구 높이차이 제거,이용가능
1135,10292,빅마켓(롯데마트도봉점),37.667617,127.0455413,서울특별시 도봉구 마들로 645,수퍼마켓·일용품 등의 도매·소매시장,100848,주출입구 높이차이 제거,이용가능
1139,10293,삼부마켓,37.595723,126.91351499999999,서울특별시 은평구 증산로21길 11,수퍼마켓·일용품 등의 도매·소매시장,100852,주출입구 높이차이 제거,이용불편
1141,10294,삼성 디지털 프라자,37.4925967,127.0404375,서울특별시 강남구 도곡로 193,수퍼마켓·일용품 등의 도매·소매시장,100854,주출입구 높이차이 제거,이용가능
1143,10296,삼성디지털프라자,37.60121270000001,126.92440690000001,서울특별시 은평구 은평로  151,수퍼마켓·일용품 등의 도매·소매시장,100858,주출입구 높이차이 제거,이용가능
1145,10300,삼성전자디지털,37.4883648,127.0286153,서울특별시 서초구 효령로  410,수퍼마켓·일용품 등의 도매·소매시장,100865,주출입구 높이차이 제거,이용가능
1147,10301,성내동 하이마트,37.5314749,127.13718329999999,서울특별시 강동구 양재대로 1403,수퍼마켓·일용품 등의 도매·소매시장,100867,주출입구 높이차이 제거,이용가능
1149,10302,성내슈퍼마트,37.5338992,127.1238495,서울특별시 강동구 천호옛길  54-1,수퍼마켓·일용품 등의 도매·소매시장,100869,주출입구 높이차이 제거,이용불편
1151,10303,세계로마트,37.6553815,127.03656609999999,서울특별시 도봉구 도봉로125길   61,수퍼마켓·일용품 등의 도매·소매시장,100871,주출입구 높이차이 제거,이용가능
1153,10304,세계로마트(세움테크사옥),37.575759999999995,126.8957476,서울특별시 마포구 월드컵북로 328,수퍼마켓·일용품 등의 도매·소매시장,100873,주출입구 높이차이 제거,이용가능
1155,10305,수유시장,37.63072879999999,127.02269380000001,서울특별시 강북구 도봉로67길 18,수퍼마켓·일용품 등의 도매·소매시장,100876,주출입구 높이차이 제거,이용가능
1158,10306,슈퍼마켓,37.5031776,126.9358108,서울특별시 동작구 상도로 147,수퍼마켓·일용품 등의 도매·소매시장,100878,주출입구 높이차이 제거,이용가능
1161,10307,신도림테크노마트,37.50704879999999,126.89024599999999,서울특별시 구로구 새말로 97,수퍼마켓·일용품 등의 도매·소매시장,100881,주출입구 높이차이 제거,이용가능
1166,10308,신세계백화점 영등포점,37.51718620000001,126.905592,서울특별시 영등포구 영중로 9,수퍼마켓·일용품 등의 도매·소매시장,100886,주출입구 높이차이 제거,이용가능
1170,10309,썬프라자,37.49639370000001,126.90808670000001,서울특별시 영등포구 신길로 41,수퍼마켓·일용품 등의 도매·소매시장,100891,주출입구 높이차이 제거,이용가능
1175,10310,아웃렛마트,37.4606245,126.9062121,서울특별시 금천구 독산로40길  29,수퍼마켓·일용품 등의 도매·소매시장,100895,주출입구 높이차이 제거,이용가능
1177,10312,아이마트,37.62437360000001,127.0599382,서울특별시 노원구 광운로 79,수퍼마켓·일용품 등의 도매·소매시장,100898,주출입구 높이차이 제거,이용불편
1180,10313,아이파크몰,37.52987020000001,126.96487590000001,서울특별시 용산구 한강대로23길 55,수퍼마켓·일용품 등의 도매·소매시장,100901,주출입구 높이차이 제거,이용가능
1183,10314,압구정갤러리아백화점EAST,37.5279152,127.0418419,서울특별시 강남구 압구정로 407,수퍼마켓·일용품 등의 도매·소매시장,100905,주출입구 높이차이 제거,이용가능
1188,10315,엠코중앙마트,37.4974068,126.95142079999998,서울특별시 동작구 상도로62길 81-1,수퍼마켓·일용품 등의 도매·소매시장,100909,주출입구 높이차이 제거,이용가능
1191,10316,역삼종합시장,37.493009,127.0391373,서울특별시 강남구 논현로63길 16,수퍼마켓·일용품 등의 도매·소매시장,100912,주출입구 높이차이 제거,이용가능
1194,10317,올슈퍼,37.446546999999995,126.9006584,서울특별시 금천구 시흥대로39길  45,수퍼마켓·일용품 등의 도매·소매시장,100915,주출입구 높이차이 제거,이용불편
1198,10318,와우쇼핑몰,37.6554297,127.06388999999999,서울특별시 노원구 노해로 507,수퍼마켓·일용품 등의 도매·소매시장,100918,주출입구 높이차이 제거,이용불편
1200,10319,월드할인마트,37.60297050000001,126.9189818,서울특별시 은평구 진흥로1길 28,수퍼마켓·일용품 등의 도매·소매시장,100923,주출입구 높이차이 제거,이용가능
1206,10320,이마트 공항점,37.5609162,126.7979123,서울특별시 강서구 하늘길 76,수퍼마켓·일용품 등의 도매·소매시장,100927,주출입구 높이차이 제거,이용가능
1215,10322,이마트 묵동점,37.6138355,127.0775187,서울특별시 중랑구 동일로 932,수퍼마켓·일용품 등의 도매·소매시장,100936,주출입구 높이차이 제거,이용가능
1222,10323,이마트 상봉점,37.5964905,127.09361799999999,서울특별시 중랑구 상봉로 118,수퍼마켓·일용품 등의 도매·소매시장,100941,주출입구 높이차이 제거,이용가능
1225,10324,이마트 성수점,37.539935299999996,127.05352179999998,서울특별시 성동구 뚝섬로 379,수퍼마켓·일용품 등의 도매·소매시장,100946,주출입구 높이차이 제거,이용가능
1230,10325,이마트 월계점,37.62690070000001,127.061334,서울특별시 노원구 마들로3길 15,수퍼마켓·일용품 등의 도매·소매시장,100951,주출입구 높이차이 제거,이용가능
1234,10326,이마트 은평점,37.6008414,126.92053419999999,서울특별시 은평구 은평로 111,수퍼마켓·일용품 등의 도매·소매시장,100956,주출입구 높이차이 제거,이용가능
1240,10327,이마트 창동점,37.6516448,127.04673259999998,서울특별시 도봉구 노해로65길  4,수퍼마켓·일용품 등의 도매·소매시장,100961,주출입구 높이차이 제거,이용가능
1245,10328,이마트(구로점),37.4844044,126.8979251,서울특별시 구로구 디지털로32길 43,수퍼마켓·일용품 등의 도매·소매시장,100966,주출입구 높이차이 제거,이용불편
1249,10329,이마트에브리데이 암사동점,37.554951,127.1362748,서울특별시 강동구 고덕로 99,수퍼마켓·일용품 등의 도매·소매시장,100970,주출입구 높이차이 제거,이용불편
1250,10330,이마트에브리데이 창동점,37.643343,127.0350449,서울특별시 도봉구 도봉로104길 53,수퍼마켓·일용품 등의 도매·소매시장,100972,주출입구 높이차이 제거,이용불편
1253,10331,청다담마트,37.4570348,126.90529070000001,서울특별시 금천구 독산로  109,수퍼마켓·일용품 등의 도매·소매시장,100974,주출입구 높이차이 제거,이용불편
1256,10332,코스트코,37.5969033,127.090322,서울특별시 중랑구 망우로 336,수퍼마켓·일용품 등의 도매·소매시장,100977,주출입구 높이차이 제거,이용가능
1260,10333,킴스마트(현:이마트 에브리데이),37.628150700000006,127.04023219999999,서울특별시 강북구 오현로32길 18,수퍼마켓·일용품 등의 도매·소매시장,100981,주출입구 높이차이 제거,이용가능
1264,10335,푸른솔마트,37.5720052,126.80771840000001,서울특별시 강서구 양천로6길 15,수퍼마켓·일용품 등의 도매·소매시장,100985,주출입구 높이차이 제거,이용불편
1265,10336,하나로마트,37.50666810000001,126.9622064,서울특별시 동작구 서달로 150,수퍼마켓·일용품 등의 도매·소매시장,100987,주출입구 높이차이 제거,이용가능
1269,10338,하모니마트,37.582216700000004,127.09091550000001,서울특별시 중랑구 면목로48길  39,수퍼마켓·일용품 등의 도매·소매시장,100995,주출입구 높이차이 제거,이용가능
1272,10339,하이마트,37.5764757,127.03864469999999,서울특별시 동대문구 고산자로 414,수퍼마켓·일용품 등의 도매·소매시장,100998,주출입구 높이차이 제거,이용가능
1276,10348,하이마트 구로점,37.4966085,126.89080279999999,서울특별시 구로구 가마산로 277,수퍼마켓·일용품 등의 도매·소매시장,101025,주출입구 높이차이 제거,이용가능
1280,10349,하이마트 독산점,37.4623485,126.8981065,서울특별시 금천구 시흥대로 322,수퍼마켓·일용품 등의 도매·소매시장,101029,주출입구 높이차이 제거,이용불편
1281,10350,하이마트 발산점,37.5587527,126.8392643,서울특별시 강서구 공항대로 283,수퍼마켓·일용품 등의 도매·소매시장,101031,주출입구 높이차이 제거,이용가능
1284,10351,하이마트 상암동,37.573569,126.8979318,서울특별시 마포구 월드컵북로  295,수퍼마켓·일용품 등의 도매·소매시장,101033,주출입구 높이차이 제거,이용가능
1287,10352,하이마트공릉점,37.6272965,127.07177549999999,서울특별시 노원구 동일로 1091,수퍼마켓·일용품 등의 도매·소매시장,101036,주출입구 높이차이 제거,이용가능
1290,10353,하이마트빌딩,37.4834528,126.98159109999999,서울특별시 동작구 동작대로 77,수퍼마켓·일용품 등의 도매·소매시장,101039,주출입구 높이차이 제거,이용가능
1293,10354,하이마트상계점,37.6749285,127.0549116,서울특별시 노원구 동일로 1641,수퍼마켓·일용품 등의 도매·소매시장,101042,주출입구 높이차이 제거,이용불편
1298,10355,하이마트서초점,37.4939628,127.0131382,서울특별시 서초구 서초대로  289,수퍼마켓·일용품 등의 도매·소매시장,101047,주출입구 높이차이 제거,이용가능
1303,10356,현대백화점,37.5560866,126.9358496,서울특별시 서대문구 신촌로 83,수퍼마켓·일용품 등의 도매·소매시장,101052,주출입구 높이차이 제거,이용가능
1308,10359,현대백화점 압구정점,37.5273658,127.0274617,서울특별시 강남구 압구정로 165,수퍼마켓·일용품 등의 도매·소매시장,101067,주출입구 높이차이 제거,이용가능
1312,10360,현대백화점U-PLEX,37.5567412,126.9365645,서울특별시 서대문구 연세로 13,수퍼마켓·일용품 등의 도매·소매시장,101072,주출입구 높이차이 제거,이용가능
1317,10361,홈플러스 가양점,37.5642865,126.84995420000001,서울특별시 강서구 양천로  431,수퍼마켓·일용품 등의 도매·소매시장,101076,주출입구 높이차이 제거,이용불편
1322,10362,홈플러스 강서점,37.558476399999996,126.85481100000001,서울특별시 강서구 화곡로  398,수퍼마켓·일용품 등의 도매·소매시장,101081,주출입구 높이차이 제거,이용가능
1327,10363,홈플러스 금천점,37.4686645,126.8968827,서울특별시 금천구 시흥대로 391,수퍼마켓·일용품 등의 도매·소매시장,101086,주출입구 높이차이 제거,이용가능
1334,10364,홈플러스 동대문점,37.57456129999999,127.038873,서울특별시 동대문구 천호대로 133,수퍼마켓·일용품 등의 도매·소매시장,101091,주출입구 높이차이 제거,이용가능
1337,10365,홈플러스 목동점,37.5302268,126.8733084,서울특별시 양천구 목동서로 170,수퍼마켓·일용품 등의 도매·소매시장,101096,주출입구 높이차이 제거,이용가능
1342,10366,홈플러스 문래점,37.5182193,126.8958098,서울특별시 영등포구 당산로  42,수퍼마켓·일용품 등의 도매·소매시장,101101,주출입구 높이차이 제거,이용가능
1347,10367,홈플러스 방학점,37.664891499999996,127.043577,서울특별시 도봉구 도봉로 678,수퍼마켓·일용품 등의 도매·소매시장,101106,주출입구 높이차이 제거,이용가능
1352,10368,홈플러스 시흥점,37.4518936,126.9007885,서울특별시 금천구 시흥대로 201,수퍼마켓·일용품 등의 도매·소매시장,101111,주출입구 높이차이 제거,이용가능
1357,10369,홈플러스 신내점,37.61582979999999,127.09373259999998,서울특별시 중랑구 신내로  201,수퍼마켓·일용품 등의 도매·소매시장,101116,주출입구 높이차이 제거,이용가능
1361,10370,홈플러스 월곡점,37.60180310000001,127.04046740000001,서울특별시 성북구 화랑로 76,수퍼마켓·일용품 등의 도매·소매시장,101121,주출입구 높이차이 제거,이용가능
1367,10372,홈플러스 중계점,37.6399096,127.0686298,서울특별시 노원구 동일로204가길 12,수퍼마켓·일용품 등의 도매·소매시장,101131,주출입구 높이차이 제거,이용가능
1370,10373,강서구2-1공영주차장,37.5360601,126.85243909999998,서울특별시 강서구 강서로18아길 26-15,주차장,101134,주출입구 높이차이 제거,이용불편
1372,10374,공덕1-1공영주차장,37.547310100000004,126.96095659999999,서울특별시 마포구 효창목길 31,주차장,101136,주출입구 높이차이 제거,이용불편
1374,10375,공용주차장,37.4922814,127.15035619999999,서울특별시 송파구 오금로68길 8,주차장,101138,주출입구 높이차이 제거,이용가능
1375,10376,까치산공영주차장,37.4797826,126.9604835,서울특별시 관악구 행운4길 21,주차장,101139,주출입구 높이차이 제거,이용가능
1377,10377,남가좌2동 제1공영주차장,37.577020399999995,126.92178159999999,서울특별시 서대문구 가재울로14길 22,주차장,101141,주출입구 높이차이 제거,이용가능
1378,10378,대림2동 공영주차장,37.4916125,126.89994899999999,서울특별시 영등포구 디지털로37나길 21,주차장,101143,주출입구 높이차이 제거,이용가능
1381,10379,대림어린이공원 지하주차장,37.4913501,126.9030298,서울특별시 영등포구 대림로  106,주차장,101145,주출입구 높이차이 제거,이용가능
1384,10381,도선공영주차장,37.5655058,127.0315039,서울특별시 성동구 무학로8길  8,주차장,101148,주출입구 높이차이 제거,이용가능
1385,10382,독산1동 공영주차장,37.464964200000004,126.8947683,서울특별시 금천구 범안로12가길 65,주차장,101149,주출입구 높이차이 제거,이용가능
1386,10383,독산3동 공영주차장,37.4795047,126.906353,서울특별시 금천구 독산로108길 44,주차장,101150,주출입구 높이차이 제거,이용불편
1388,10384,동산공영주차장,37.55630900000001,127.01600390000002,서울특별시 중구 다산로24가길 23,주차장,101152,주출입구 높이차이 제거,이용불편
1390,10385,등촌동공영주차장,37.5498061,126.8613244,서울특별시 강서구 등촌로55길  33-16,주차장,101154,주출입구 높이차이 제거,이용가능
1392,10386,마천동 공영주차장1,37.4952891,127.15556129999999,서울특별시 송파구 성내천로43길 6,주차장,101156,주출입구 높이차이 제거,이용가능
1393,10387,망원1-1공영주차장,37.5561427,126.8999882,서울특별시 마포구 망원로 28,주차장,101158,주출입구 높이차이 제거,이용가능
1396,10388,망원2-1공영주차장,37.5577488,126.90125640000001,서울특별시 마포구 망원로3길 24,주차장,101160,주출입구 높이차이 제거,이용가능
1399,10390,면목3.8동공영주차장,37.5898293,127.09643529999998,서울특별시 중랑구 겸재로64길 9,주차장,101163,주출입구 높이차이 제거,이용가능
1402,10392,버티공영주차장,37.5490732,127.00630890000002,서울특별시 중구 동호로17길 270,주차장,101166,주출입구 높이차이 제거,이용불편
1404,10393,볏골공원 지하공영주차장(볏골공원화장실에서 변경),37.54179,126.844327,서울특별시 강서구 까치산로4길  22,공중화장실,101168,주출입구 높이차이 제거,이용불편
1406,10394,북아현동 제2공영주차장,37.56006179999999,126.95830690000001,서울특별시 서대문구 북아현로6길 60,주차장,101170,주출입구 높이차이 제거,이용불편
1407,10395,삼성 공영주차장,37.45458789999999,126.90903759999999,서울특별시 금천구 독산로24마길 30,주차장,101172,주출입구 높이차이 제거,이용가능
1410,10396,상암1공영주차장,37.5773151,126.8971706,서울특별시 마포구 성암로 197,주차장,101174,주출입구 높이차이 제거,이용가능
1411,10397,서계공영주차장,37.5516492,126.9643893,서울특별시 용산구 효창원로104가길 16,주차장,101175,주출입구 높이차이 제거,이용가능
1413,10398,서인사마당 공영주차장,37.573689200000004,126.98360339999999,서울특별시 종로구 인사동11길  19,주차장,101177,주출입구 높이차이 제거,이용가능
1415,10399,서초3동공영주차장,37.49054879999999,127.00895290000001,서울특별시 서초구 반포대로28길  7,주차장,101179,주출입구 높이차이 제거,이용가능
1417,10400,성산2-1공영주차장,37.56483370000001,126.90669109999999,서울특별시 마포구 모래내로 31,주차장,101181,주출입구 높이차이 제거,이용가능
1419,10401,손기정체육공원 주차장,37.5569261,126.96636869999999,서울특별시 중구 손기정로  101,주차장,101183,주출입구 높이차이 제거,이용불편
1421,10402,송파동 공영주차장,37.50702800000001,127.11336740000002,서울특별시 송파구 백제고분로44길 13-25,주차장,101185,주출입구 높이차이 제거,이용가능
1422,10403,시흥3동 공영주차장,37.4430093,126.90582979999999,서울특별시 금천구 시흥대로34길 20,주차장,101186,주출입구 높이차이 제거,이용불편
1423,10404,시흥4동 공영주차장,37.4596985,126.90861869999999,서울특별시 금천구 독산로36나길 21,주차장,101187,주출입구 높이차이 제거,이용가능
1424,10405,신당2동공영주차장,37.5543576,127.00858429999998,서울특별시 중구 동호로15길 60,주차장,101189,주출입구 높이차이 제거,이용불편
1426,10406,신당6동공영주차장,37.5613844,127.01902949999999,서울특별시 중구 다산로36가길 13,주차장,101191,주출입구 높이차이 제거,이용불편
1429,10407,신당사거리공영주차장,37.5651312,127.017016,서울특별시 중구 퇴계로 408,주차장,101193,주출입구 높이차이 제거,이용불편
1431,10408,신창동 공영주차장,37.5352858,126.95521799999999,서울특별시 용산구 원효로35길  53,주차장,101195,주출입구 높이차이 제거,이용가능
1433,10409,암사1동공영주차장(암사4동 공영주차장),37.5526841,127.1380091,서울특별시 강동구 고덕로28길 36,주차장,101197,주출입구 높이차이 제거,이용가능
1435,10411,연희동 제4공영주차장,37.57084329999999,126.92271090000001,서울특별시 서대문구 홍제천로 54-19,주차장,101201,주출입구 높이차이 제거,이용가능
1437,10412,연희동 제5공영주차장,37.5710271,126.9229301,서울특별시 서대문구 홍제천로2길 83,주차장,101203,주출입구 높이차이 제거,이용불편
1439,10413,연희동 제6공영주차장,37.5749547,126.928001,서울특별시 서대문구 홍연길 16,주차장,101205,주출입구 높이차이 제거,이용가능
1440,10414,용산2가동 공영주차장,37.546079299999995,126.98558340000001,서울특별시 용산구 신흥로 90,주차장,101207,주출입구 높이차이 제거,이용가능
1442,10415,원신공영주차장,37.4701269,126.92928559999999,서울특별시 관악구 양지길 63,주차장,101208,주출입구 높이차이 제거,이용가능
1445,10417,장충공영주차장,37.5599718,127.00133090000001,서울특별시 중구 퇴계로50길 59,주차장,101211,주출입구 높이차이 제거,이용불편
1446,10418,조원동공영주차장,37.4810827,126.9057145,서울특별시 관악구 조원중앙로2길 19,주차장,101212,주출입구 높이차이 제거,이용가능
1448,10419,창2동4공영주차장,37.6402939,127.0353759,서울특별시 도봉구 덕릉로59차길 37,주차장,101214,주출입구 높이차이 제거,이용가능
1450,10421,천호3동 노외 공영주차장,37.540096500000004,127.12811040000001,서울특별시 강동구 진황도로2길 34,주차장,101216,주출입구 높이차이 제거,이용불편
1452,10422,충현동 제1공영주차장,37.565104,126.96453659999999,서울특별시 서대문구 경기대로 72,주차장,101218,주출입구 높이차이 제거,이용가능
1454,10423,충현동 제2공영주차장,37.5628854,126.9567933,서울특별시 서대문구 북아현로14길 24,주차장,101220,주출입구 높이차이 제거,이용가능
1455,10424,충현어린이공영주차장,37.552119899999994,127.0052382,서울특별시 중구 동호로11차길 1,주차장,101222,주출입구 높이차이 제거,이용불편
1458,10425,필동공영주차장,37.5565979,126.99588440000001,서울특별시 중구 필동로 55,주차장,101224,주출입구 높이차이 제거,이용불편
1460,10426,홍은1동 제4공영주차장,37.6015614,126.94914820000001,서울특별시 서대문구 홍은중앙로 125,주차장,101226,주출입구 높이차이 제거,이용가능
1462,10427,홍은2동 제1공영주차장,37.5789391,126.92564840000001,서울특별시 서대문구 증가로10길 60-23,주차장,101228,주출입구 높이차이 제거,이용불편
1464,10428,홍은2동 제2공영주차장,37.5875726,126.9319203,서울특별시 서대문구 연희로39나길 25,주차장,101230,주출입구 높이차이 제거,이용가능
1466,10429,홍은2동 제3공영주차장,37.5866921,126.93417579999999,서울특별시 서대문구 연희로39길 12,주차장,101232,주출입구 높이차이 제거,이용불편
1468,10430,홍제1동 제2공영주차장,37.584115000000004,126.9462017,서울특별시 서대문구 모래내로28안길 39,주차장,101234,주출입구 높이차이 제거,이용가능
1470,10431,화곡1-1공영주차장,37.531446100000004,126.8398895,서울특별시 강서구 곰달래로15길  28,주차장,101236,주출입구 높이차이 제거,이용가능
1471,10432,화곡7-1공영주차장,37.5360375,126.8391765,서울특별시 강서구 월정로32길 68,주차장,101238,주출입구 높이차이 제거,이용가능
1474,10433,화곡8-2주택가공영주차장,37.537681,126.85036670000001,서울특별시 강서구 초록마을로  126,주차장,101240,주출입구 높이차이 제거,이용불편
1477,10435,화곡본-2주택가(공영주차장),37.5443078,126.84845729999999,서울특별시 강서구 초록마을로5길 43,주차장,101243,주출입구 높이차이 제거,이용불편
1479,10436,갈곡리어린이공원 화장실,37.6239024,126.9166598,서울특별시 은평구 갈현로41길  3,공중화장실,101245,주출입구 높이차이 제거,이용가능
1482,10437,개롱공원 공중화장실,37.4934599,127.13005890000001,서울특별시 송파구 동남로 178,공중화장실,101248,주출입구 높이차이 제거,이용가능
1485,10438,곰돌이공원화장실(단지내),37.5622715,126.8570219,서울특별시 강서구 허준로 176,공중화장실,101251,주출입구 높이차이 제거,이용가능
1487,10439,공중화장실,37.4737845,126.9004226,서울특별시 금천구 시흥대로144길 17,공중화장실,101253,주출입구 높이차이 제거,이용불편
1490,10443,공중화장실 14호,37.49634260000001,126.8244435,서울특별시 구로구 부일로9길 90-2,공중화장실,101260,주출입구 높이차이 제거,이용불편
1493,10444,공중화장실 23호,37.5040744,126.8527845,서울특별시 구로구 고척로45길 1,공중화장실,101263,주출입구 높이차이 제거,이용불편
1496,10445,공중화장실(대방역),37.512858,126.9260565,서울특별시 영등포구 노량진로  7,공중화장실,101266,주출입구 높이차이 제거,이용가능
1499,10446,공중화장실(여의도공원),37.5295815,126.9266321,서울특별시 영등포구 여의공원로  120,공중화장실,101269,주출입구 높이차이 제거,이용가능
1501,10447,공중화장실24호,37.4899799,126.85289070000002,서울특별시 구로구 개봉로15길 58-2,공중화장실,101272,주출입구 높이차이 제거,이용가능
1505,10448,공중화장실5호,37.4870571,126.88624109999998,서울특별시 구로구 구로동로8길 27,공중화장실,101275,주출입구 높이차이 제거,이용불편
1507,10449,공중화장실6호,37.4883092,126.8809088,서울특별시 구로구 구로동로17길 66,공중화장실,101277,주출입구 높이차이 제거,이용가능
1510,10450,공항동 화장실(성당옆공원),37.5562315,126.8120999,서울특별시 강서구 송정로 9,공중화장실,101280,주출입구 높이차이 제거,이용불편
1513,10451,광장시장 공중화장실,37.5701745,127.0012544,서울특별시 종로구 종로32길 19,공중화장실,101283,주출입구 높이차이 제거,이용가능
1516,10452,광희동1가시범공중화장실,37.5643713,127.0063064,서울특별시 중구 마른내로  166,공중화장실,101286,주출입구 높이차이 제거,이용가능
1517,10453,까치산공원화장실-(새길상세주소누락),37.540975,126.8424756,서울특별시 강서구 까치산로2길 1,공중화장실,101287,주출입구 높이차이 제거,이용불편
1518,10454,꽃동네공원화장실(단지내),37.5704364,126.84724469999999,서울특별시 강서구 허준로 47,공중화장실,101289,주출입구 높이차이 제거,이용가능
1521,10456,나들이공원화장실(단지내),37.571579,126.84528130000001,서울특별시 강서구 허준로 23,공중화장실,101294,주출입구 높이차이 제거,이용가능
1523,10457,대방동공중화장실,37.4979941,126.92201850000001,서울특별시 동작구 여의대방로24길 29,공중화장실,101296,주출입구 높이차이 제거,이용가능
1526,10458,도화소공원공중화장실,37.541049,126.9453594,서울특별시 마포구 토정로37길 22,공중화장실,101299,주출입구 높이차이 제거,이용불편
1529,10459,동명근린공원 공중화장실,37.560550899999996,127.16381990000001,서울특별시 강동구 아리수로78길 43-1,공중화장실,101302,주출입구 높이차이 제거,이용가능
1532,10460,동묘공원 공중화장실,37.572815999999996,127.0184433,서울특별시 종로구 난계로27길 84,공중화장실,101305,주출입구 높이차이 제거,이용가능
1536,10461,면목5동공중화장실,37.59368170000001,127.0917145,서울특별시 중랑구 봉우재로 168-1,공중화장실,101308,주출입구 높이차이 제거,이용가능
1538,10462,목련공원화장실,37.4990849,127.13886770000002,서울특별시 송파구 동남로24길 25,공중화장실,101311,주출입구 높이차이 제거,이용가능
1541,10463,무궁화공원화장실,37.541621899999996,126.8427358,서울특별시 강서구 까치산로 18,공중화장실,101314,주출입구 높이차이 제거,이용불편
1543,10464,무지개공원화장실(단지내),37.565272799999995,126.85199159999999,서울특별시 강서구 양천로57길 37,공중화장실,101316,주출입구 높이차이 제거,이용가능
1545,10466,방화근린공원화장실(관리사무실),37.5809902,126.8141648,서울특별시 강서구 금낭화로  176,공중화장실,101321,주출입구 높이차이 제거,이용가능
1549,10468,백토공원화장실,37.5081146,127.13213470000001,서울특별시 송파구 양재대로72길 47-8,공중화장실,101325,주출입구 높이차이 제거,이용가능
1552,10469,봉원공용화장실,37.5707186,126.9461973,서울특별시 서대문구 봉원사길 101-18,공중화장실,101328,주출입구 높이차이 제거,이용불편
1555,10470,비둘기공원화장실(단지내),37.5598505,126.8624406,서울특별시 강서구 허준로 224,공중화장실,101331,주출입구 높이차이 제거,이용가능
1556,10471,사자암공중화장실,37.492748799999994,126.9371652,서울특별시 동작구 국사봉1길 235-14,공중화장실,101332,주출입구 높이차이 제거,이용가능
1559,10472,사직공원 공중화장실,37.5756566,126.96766640000001,서울특별시 종로구 사직로 89,공중화장실,101335,주출입구 높이차이 제거,이용가능
1561,10473,삼청공원 공중화장실,37.5879947,126.98410159999999,서울특별시 종로구 북촌로 134-3,공중화장실,101337,주출입구 높이차이 제거,이용불편
1565,10475,새락골어린이공원화장실,37.5989713,126.9113348,서울특별시 은평구 은평로3가길 34,공중화장실,101341,주출입구 높이차이 제거,이용가능
1568,10476,새록어린이공원화장실,37.60395250000001,126.92389209999999,서울특별시 은평구 은평로13길  35,공중화장실,101344,주출입구 높이차이 제거,이용가능
1571,10477,서낭당근린공원화장실(관리사무실),37.5588806,126.8499866,서울특별시 강서구 공항대로43길 46,공중화장실,101347,주출입구 높이차이 제거,이용불편
1574,10479,시범공중화장실,37.623019299999996,126.9358996,서울특별시 은평구 불광로18길  43,공중화장실,101353,주출입구 높이차이 제거,이용가능
1578,10481,신원시장 공중화장실,37.4820859,126.92739089999999,서울특별시 관악구 신원로3길  20-3,공중화장실,101357,주출입구 높이차이 제거,이용가능
1582,10483,신흥어린이공원 공중화장실,37.5959645,126.9119679,서울특별시 은평구 증산로21길  25,공중화장실,101361,주출입구 높이차이 제거,이용가능
1584,10484,아름공원화장실(동양고옆공원),37.5687999,126.8470975,서울특별시 강서구 허준로 50,공중화장실,101364,주출입구 높이차이 제거,이용가능
1586,10486,어린이대공원후문공중화장실,37.5498987,127.0809212,서울특별시 광진구 능동로 216,공중화장실,101368,주출입구 높이차이 제거,이용가능
1589,10487,역말공원화장실,37.606927,126.9142745,서울특별시 은평구 갈현로14길 32,공중화장실,101371,주출입구 높이차이 제거,이용가능
1592,10488,연서공원화장실,37.604146,126.9166759,서울특별시 은평구 연서로6길 8-1,공중화장실,101374,주출입구 높이차이 제거,이용가능
1595,10489,연화공원화장실,37.4855016,127.12903030000001,서울특별시 송파구 새말로15길 17-5,공중화장실,101377,주출입구 높이차이 제거,이용가능
1598,10490,오금공원인라인장화장실,37.5052003,127.13167390000001,서울특별시 송파구 오금로 363,공중화장실,101380,주출입구 높이차이 제거,이용가능
1601,10492,을지로7가시범공중화장실,37.5656185,127.00825459999999,서울특별시 중구 장충단로 228-15,공중화장실,101386,주출입구 높이차이 제거,이용가능
1605,10494,장미공원화장실,37.5568468,126.81375200000001,서울특별시 강서구 방화대로7다길 35-18,공중화장실,101390,주출입구 높이차이 제거,이용불편
1608,10496,좌월어린이공원 화장실,37.61716550000001,126.91314560000001,서울특별시 은평구 갈현로25길 11-8,공중화장실,101393,주출입구 높이차이 제거,이용가능
1611,10497,초안산공중화장실,37.6474615,127.04149040000001,서울특별시 도봉구 해등로3길  48-11,공중화장실,101396,주출입구 높이차이 제거,이용가능
1615,10498,21세기병원,37.48526470000001,127.0156815,서울특별시 서초구 서초중앙로  39,종합병원,101399,주출입구 높이차이 제거,이용가능
1618,10499,A+ 치과병원,37.527247100000004,127.0339057,서울특별시 강남구 언주로 860,종합병원,101403,주출입구 높이차이 제거,이용가능
1621,10500,BMC한방병원,37.5462952,126.84549960000001,서울특별시 강서구 화곡로 238,종합병원,101406,주출입구 높이차이 제거,이용가능
1625,10501,GS항외과의원,37.484984499999996,126.93631599999999,서울특별시 관악구 남부순환로 1669,종합병원,101410,주출입구 높이차이 제거,이용가능
1632,10502,HL의원(선기빌딩),37.5115965,127.0323017,서울특별시 강남구 논현로 648,종합병원,101415,주출입구 높이차이 제거,이용가능
1635,10503,KS병원,37.5093123,127.0439585,서울특별시 강남구 선릉로 571,종합병원,101420,주출입구 높이차이 제거,이용가능
1640,10504,MD병원,37.5262501,127.0404523,서울특별시 강남구 선릉로 832,종합병원,101425,주출입구 높이차이 제거,이용가능
1645,10505,MVP성형외과,37.521642799999995,127.02789879999999,서울특별시 강남구 논현로 819,종합병원,101430,주출입구 높이차이 제거,이용가능
1649,10506,SMC서울메디칼센터(의원),37.56687720000001,126.90985590000001,서울특별시 마포구 월드컵북로  165,종합병원,101434,주출입구 높이차이 제거,이용가능
1654,10507,W병원,37.484233700000004,126.9329375,서울특별시 관악구 남부순환로  1640,종합병원,101439,주출입구 높이차이 제거,이용가능
1658,10508,가화정신병원,37.6628181,127.0344193,서울특별시 도봉구 도당로  51,종합병원,101443,주출입구 높이차이 제거,이용가능
1664,10509,강남경희한방병원,37.4992831,127.06761840000001,서울특별시 강남구 영동대로 225,종합병원,101447,주출입구 높이차이 제거,이용가능
1667,10510,강남성심병원,37.492878600000004,126.9087598,서울특별시 영등포구 신길로 1,종합병원,101452,주출입구 높이차이 제거,이용가능
1672,10511,강남성심병원별관,37.4943419,126.9082723,서울특별시 영등포구 신길로 19-2,종합병원,101457,주출입구 높이차이 제거,이용가능
1679,10512,강남세브란스,37.492779799999994,127.04630929999999,서울특별시 강남구 언주로 211,종합병원,101462,주출입구 높이차이 제거,이용가능
1682,10513,강남센트럴요양병원,37.4884511,127.1029949,서울특별시 강남구 광평로51길 6-9,종합병원,101467,주출입구 높이차이 제거,이용가능
1686,10514,강남요양병원,37.499390500000004,127.0120913,서울특별시 서초구 서초중앙로 197,종합병원,101471,주출입구 높이차이 제거,이용가능
1690,10515,강남을지병원,37.5193962,127.0286482,서울특별시 강남구 도산대로 202,종합병원,101475,주출입구 높이차이 제거,이용가능
1695,10516,강남자이 비뇨기과 병원,37.5080115,127.03313999999999,서울특별시 강남구 논현로 609,종합병원,101480,주출입구 높이차이 제거,이용가능
1700,10517,강남중앙병원,37.481594799999996,126.91170670000001,서울특별시 관악구 남부순환로  1449,종합병원,101485,주출입구 높이차이 제거,이용가능
1705,10518,강남초이스병원,37.481312100000004,126.9496007,서울특별시 관악구 남부순환로  1796,종합병원,101490,주출입구 높이차이 제거,이용가능
1710,10519,강남효병원(고암빌딩),37.48305850000001,126.9394003,서울특별시 관악구 남부순환로  1704,종합병원,101495,주출입구 높이차이 제거,이용가능
1715,10520,강동미즈문화센터소아청소년과,37.5381348,127.12795390000001,서울특별시 강동구 천호대로159길 14,종합병원,101500,주출입구 높이차이 제거,이용가능
1722,10521,강동미즈여성병원,37.5376224,127.1281183,서울특별시 강동구 천호대로 1043,종합병원,101505,주출입구 높이차이 제거,이용가능
1725,10522,강동성모병원,37.5341742,127.1393437,서울특별시 강동구 천호대로 1151,종합병원,101510,주출입구 높이차이 제거,이용가능
1729,10523,강동성모요양병원(별관),37.5343935,127.139595,서울특별시 강동구 진황도로 124,종합병원,101514,주출입구 높이차이 제거,이용불편
1733,10524,강동성모요양병원(신관),37.5345705,127.1394696,서울특별시 강동구 진황도로  122,종합병원,101519,주출입구 높이차이 제거,이용가능
1742,10526,강동센트럴요양병원,37.551139299999996,127.12845779999999,서울특별시 강동구 올림픽로98길 8,종합병원,101527,주출입구 높이차이 제거,이용가능
1747,10527,강동연세내과,37.55086420000001,127.1281396,서울특별시 강동구 올림픽로  782,종합병원,101532,주출입구 높이차이 제거,이용가능
1752,10528,강동연세병원,37.547326,127.12690829999998,서울특별시 강동구 올림픽로 742,종합병원,101537,주출입구 높이차이 제거,이용불편
1757,10529,강동한방병원,37.544164,127.142799,서울특별시 강동구 양재대로  1554,종합병원,101542,주출입구 높이차이 제거,이용가능
1762,10530,강북21세기병원,37.6099209,127.07820120000001,서울특별시 중랑구 동일로 890,종합병원,101547,주출입구 높이차이 제거,이용가능
1766,10531,강북삼성병원 본관,37.5684083,126.96775,서울특별시 종로구 새문안로  29,종합병원,101552,주출입구 높이차이 제거,이용가능
1772,10533,강북성모병원,37.56613400000001,126.9276737,서울특별시 서대문구 성산로  335,종합병원,101560,주출입구 높이차이 제거,이용가능
1780,10536,강북힘찬병원,37.64566720000001,127.03339869999999,서울특별시 도봉구 도봉로  446,종합병원,101569,주출입구 높이차이 제거,이용가능
1786,10537,강서성모요양병원,37.5598994,126.8553865,서울특별시 강서구 화곡로  416,종합병원,101574,주출입구 높이차이 제거,이용불편
1789,10538,강서성심병원(강서사랑요양병원),37.572979499999995,126.80769380000001,서울특별시 강서구 양천로  35,종합병원,101578,주출입구 높이차이 제거,이용불편
1794,10539,강서솔병원,37.5661315,126.8116212,서울특별시 강서구 금낭화로  9,종합병원,101582,주출입구 높이차이 제거,이용불편
1798,10540,강서연세병원,37.549314700000004,126.87481969999999,서울특별시 강서구 양천로  712,종합병원,101585,주출입구 높이차이 제거,이용불편
1800,10541,강서한방병원,37.5299591,126.8388321,서울특별시 강서구 곰달래로  54,종합병원,101588,주출입구 높이차이 제거,이용불편
1803,10542,강윤빌딩(윤앤송한의원),37.5921768,127.01548600000001,서울특별시 성북구 동소문로  92,종합병원,101591,주출입구 높이차이 제거,이용가능
1808,10543,건강한세상앞선치과병원,37.5109817,127.0580898,서울특별시 강남구 테헤란로87길 46,종합병원,101596,주출입구 높이차이 제거,이용가능
1812,10544,건국대학교병원,37.5403764,127.07182759999998,서울특별시 광진구 능동로 120-1,종합병원,101600,주출입구 높이차이 제거,이용가능
1819,10545,경동요양병원,37.5829554,127.0437795,서울특별시 동대문구 약령시로 124,종합병원,101605,주출입구 높이차이 제거,이용가능
1822,10546,경찰병원,37.4963836,127.12350900000001,서울특별시 송파구 송이로 123,종합병원,101610,주출입구 높이차이 제거,이용가능
1829,10548,경희의원,37.484485600000006,126.97237040000002,서울특별시 동작구 사당로 215,종합병원,101618,주출입구 높이차이 제거,이용가능
1835,10549,경희인의한의원,37.610939,126.9288505,서울특별시 은평구 통일로67길  3,종합병원,101623,주출입구 높이차이 제거,이용가능
1839,10552,고려새한병원,37.6151266,127.02960049999999,서울특별시 강북구 도봉로 67,종합병원,101637,주출입구 높이차이 제거,이용불편
1844,10553,고려수요양병원,37.48003660000001,126.90642350000002,서울특별시 금천구 남부순환로 1400,종합병원,101642,주출입구 높이차이 제거,이용불편
1849,10554,고운타워(유앤유치과),37.48731420000001,126.9471,서울특별시 관악구 양녕로 58,종합병원,101647,주출입구 높이차이 제거,이용가능
1854,10555,공안과,37.5339209,127.12603259999999,서울특별시 강동구 풍성로37길 45,종합병원,101652,주출입구 높이차이 제거,이용가능
1857,10556,관악구보건소,37.4781549,126.95148470000001,서울특별시 관악구 관악로  145,종합병원,101657,주출입구 높이차이 제거,이용가능
1863,10557,광동한방병원,37.514287,127.06216380000001,서울특별시 강남구 봉은사로 612,종합병원,101662,주출입구 높이차이 제거,이용가능
1868,10558,광진구 보건소(광진구청제2별관),37.538616999999995,127.082375,서울특별시 광진구 자양로 117,종합병원,101666,주출입구 높이차이 제거,이용불편
1871,10559,광혜병원,37.5081511,127.0647955,서울특별시 강남구 영동대로86길 9,종합병원,101670,주출입구 높이차이 제거,이용가능
1877,10561,구로고대병원,37.492052,126.88487009999999,서울특별시 구로구 구로동로 148,종합병원,101680,주출입구 높이차이 제거,이용가능
1884,10562,구로고대부속병원장례식장,37.4932305,126.88516709999999,서울특별시 구로구 가마산로 218,종합병원,101685,주출입구 높이차이 제거,이용불편
1887,10563,구로성심병원,37.4996564,126.8663737,서울특별시 구로구 경인로 427,종합병원,101690,주출입구 높이차이 제거,이용가능
1892,10564,국립의료원,37.5614,126.999275,서울특별시 중구 서애로1길 17,종합병원,101695,주출입구 높이차이 제거,이용불편
1899,10565,국립재활원,37.6388781,127.0105162,서울특별시 강북구 삼각산로 58,종합병원,101700,주출입구 높이차이 제거,이용가능
1902,10566,굿조인트병원,37.493239,127.1458933,서울특별시 송파구 오금로 513,종합병원,101705,주출입구 높이차이 제거,이용가능
1906,10568,기쁨병원(지후빌딩),37.4899239,127.0337463,서울특별시 강남구 도곡로 122,종합병원,101714,주출입구 높이차이 제거,이용가능
1909,10569,"길동노인요양병원(동화빌딩 4,5층)",37.5340809,127.14093799999999,서울특별시 강동구 천호대로  1165,종합병원,101718,주출입구 높이차이 제거,이용가능
1915,10570,김&송 유나이티드 성형외과(하늘빌딩),37.4849635,127.0351139,서울특별시 강남구 남부순환로 2609,종합병원,101723,주출입구 높이차이 제거,이용가능
1921,10572,김영수병원(구정빌딩),37.528514799999996,127.0352314,서울특별시 강남구 언주로174길 15,종합병원,101729,주출입구 높이차이 제거,이용불편
1924,10573,김완호정형외과의원,37.5420459,126.84075109999999,서울특별시 강서구 화곡로 173,종합병원,101732,주출입구 높이차이 제거,이용불편
1930,10574,김인권 성형외과(유덕빌딩),37.5266565,127.04597659999999,서울특별시 강남구 압구정로 443,종합병원,101736,주출입구 높이차이 제거,이용가능
1933,10575,김홍일내과,37.4520002,126.9021196,서울특별시 금천구 시흥대로 202,종합병원,101741,주출입구 높이차이 제거,이용가능
1938,10576,나누리병원,37.537369500000004,126.8367068,서울특별시 강서구 가로공원로  187,종합병원,101746,주출입구 높이차이 제거,이용가능
1942,10578,낙성대클리닉센터(고려정형외과의원),37.475941,126.9656702,서울특별시 관악구 남부순환로 1952,종합병원,101756,주출입구 높이차이 제거,이용가능
1947,10579,난곡보건분소,37.4694995,126.92035320000001,서울특별시 관악구 난곡로 162,종합병원,101760,주출입구 높이차이 제거,이용가능
1952,10580,날개병원,37.58163920000001,127.0295165,서울특별시 동대문구 무학로 193-1,종합병원,101765,주출입구 높이차이 제거,이용가능
1961,10582,네모치과의원(신도타워),37.504693100000004,127.04802340000002,서울특별시 강남구 테헤란로 333,종합병원,101774,주출입구 높이차이 제거,이용가능
1969,10584,노원보건소,37.654358,127.056473,서울특별시 노원구 노해로 437,종합병원,101782,주출입구 높이차이 제거,이용가능
1976,10585,노원솔요양병원,37.6591873,127.0756768,서울특별시 노원구 덕릉로 690,종합병원,101787,주출입구 높이차이 제거,이용가능
1979,10586,노원스마트요양병원,37.65743629999999,127.06564329999999,서울특별시 노원구 노원로 461,종합병원,101792,주출입구 높이차이 제거,이용가능
1984,10587,노정형외과,37.600322799999994,127.10511699999999,서울특별시 중랑구 망우로 476,종합병원,101797,주출입구 높이차이 제거,이용가능
1988,10588,녹십초한방병원,37.48840070000001,126.90663020000001,서울특별시 동작구 시흥대로 634,종합병원,101802,주출입구 높이차이 제거,이용가능
1994,10589,누네안과병원,37.501015100000004,127.0509749,서울특별시 강남구 선릉로 404,종합병원,101807,주출입구 높이차이 제거,이용가능
1999,10590,뉴강서성심병원,37.573286700000004,126.80882450000001,서울특별시 강서구 양천로 45-5,종합병원,101812,주출입구 높이차이 제거,이용불편
2002,10591,뉴스타트병원,37.499100899999995,127.1194393,서울특별시 송파구 송이로 76,종합병원,101816,주출입구 높이차이 제거,이용가능
2008,10592,뉴연세 산후조리원,37.4551778,126.899746,서울특별시 금천구 시흥대로71길 41,종합병원,101821,주출입구 높이차이 제거,이용가능
2015,10593,뉴타운장례식장,37.6076021,127.03041840000002,서울특별시 성북구 종암로 199,종합병원,101826,주출입구 높이차이 제거,이용가능
2017,10594,다나병원,37.6550662,127.0404595,서울특별시 도봉구 해등로 129,종합병원,101830,주출입구 높이차이 제거,이용가능
2020,10596,대림성모병원,37.490701,126.9071757,서울특별시 영등포구 시흥대로 657,종합병원,101839,주출입구 높이차이 제거,이용불편
2026,10597,대림성모병원 건강검진센터,37.490469299999994,126.90666259999999,서울특별시 영등포구 시흥대로183길 7-8,종합병원,101844,주출입구 높이차이 제거,이용가능
2030,10598,대한병원,37.635477,127.02270190000002,서울특별시 강북구 도봉로 301,종합병원,101849,주출입구 높이차이 제거,이용불편
2035,10599,대항병원,37.4757993,126.9877259,서울특별시 서초구 남부순환로 2151,종합병원,101853,주출입구 높이차이 제거,이용가능
2041,10600,더 조은병원,37.5149034,127.03001370000001,서울특별시 강남구 논현로 705,종합병원,101857,주출입구 높이차이 제거,이용불편
2044,10601,더본정형외과,37.4825638,126.98147970000001,서울특별시 동작구 동작대로 67,종합병원,101862,주출입구 높이차이 제거,이용가능
2049,10602,더와이즈황병원,37.5420744,126.8428935,서울특별시 강서구 까치산로 23,종합병원,101867,주출입구 높이차이 제거,이용불편
2057,10604,도봉병원<본관>,37.6687601,127.04382790000001,서울특별시 도봉구 도봉로 720,종합병원,101873,주출입구 높이차이 제거,이용가능
2060,10605,도봉병원<신관>,37.668525,127.04381969999999,서울특별시 도봉구 도봉로 718,종합병원,101878,주출입구 높이차이 제거,이용가능
2065,10606,도봉보건소,37.657993499999996,127.0389254,서울특별시 도봉구 방학로3길 117,종합병원,101883,주출입구 높이차이 제거,이용가능
2072,10607,도양라비앙타워빌딩(서울수치과),37.5315201,126.84654170000002,서울특별시 강서구 강서로  43,종합병원,101888,주출입구 높이차이 제거,이용가능
2079,10609,동부제일병원,37.6007085,127.1090094,서울특별시 중랑구 망우로 511,종합병원,101897,주출입구 높이차이 제거,이용가능
2083,10610,동서울병원,37.576056099999995,127.0256247,서울특별시 동대문구 왕산로 18,종합병원,101902,주출입구 높이차이 제거,이용가능
2089,10611,동서한방병원,37.5646732,126.93027279999998,서울특별시 서대문구 성산로 365-14,종합병원,101907,주출입구 높이차이 제거,이용가능
2093,10612,동신병원(구관),37.5813323,126.9364251,서울특별시 서대문구 연희로 272,종합병원,101912,주출입구 높이차이 제거,이용불편
2098,10613,동신병원신관(동욱빌딩),37.5816902,126.936578,서울특별시 서대문구 연희로 276,종합병원,101916,주출입구 높이차이 제거,이용가능
2105,10614,동작경희병원,37.5024765,126.9358649,서울특별시 동작구 상도로 146,종합병원,101921,주출입구 높이차이 제거,이용가능
2108,10615,동작보건소,37.504550200000004,126.94100800000001,서울특별시 동작구 장승배기로10길 42,종합병원,101926,주출입구 높이차이 제거,이용가능
2113,10616,드림비뇨기과 피부과,37.592850899999995,126.9134417,서울특별시 은평구 가좌로 271,종합병원,101931,주출입구 높이차이 제거,이용가능
2120,10617,드림성형외과,37.5246,127.02887959999998,서울특별시 강남구 논현로  848,종합병원,101936,주출입구 높이차이 제거,이용가능
2123,10618,드림요양병원,37.4966844,127.12216049999999,서울특별시 송파구 송이로 111,종합병원,101941,주출입구 높이차이 제거,이용가능
2128,10619,라마드레 산부인과,37.5070119,127.04665359999998,서울특별시 강남구 선릉로  535,종합병원,101946,주출입구 높이차이 제거,이용가능
2133,10620,라온병원(승일뷰티타워),37.5177489,126.8420281,서울특별시 양천구 신월로 164,종합병원,101951,주출입구 높이차이 제거,이용가능
2138,10621,라피 메딩앙스 정형외과,37.522444799999995,127.02855020000001,서울특별시 강남구 논현로 828,종합병원,101954,주출입구 높이차이 제거,이용가능
2140,10622,로고스치과,37.5548331,126.85429429999999,서울특별시 강서구 공항대로 426,종합병원,101958,주출입구 높이차이 제거,이용불편
2145,10623,로고스치과병원,37.55887070000001,126.8389048,서울특별시 강서구 공항대로  281,종합병원,101963,주출입구 높이차이 제거,이용불편
2152,10624,로하스은평효병원,37.6173231,126.9188543,서울특별시 은평구 연서로  209,종합병원,101968,주출입구 높이차이 제거,이용가능
2154,10625,루시나산부인과,37.590281,127.01540559999998,서울특별시 성북구 보문로  180,종합병원,101972,주출입구 높이차이 제거,이용불편
2159,10627,린피부과,37.5074552,127.09004270000001,서울특별시 송파구 석촌호수로  118,종합병원,101977,주출입구 높이차이 제거,이용가능
2162,10628,마디병원,37.5177013,127.05119270000002,서울특별시 강남구 삼성로 646,종합병원,101982,주출입구 높이차이 제거,이용가능
2169,10629,마리아병원,37.493035299999995,127.12461470000001,서울특별시 송파구 송이로 156,종합병원,101987,주출입구 높이차이 제거,이용가능
2174,10631,마리아성모병원,37.5271387,126.9059592,서울특별시 영등포구 영중로  122,종합병원,101997,주출입구 높이차이 제거,이용가능
2177,10632,맑은수병원,37.563889,127.0655703,서울특별시 동대문구 천호대로83길 44,종합병원,102001,주출입구 높이차이 제거,이용가능
2183,10633,맑음숲한의원,37.47849160000001,126.98135590000001,서울특별시 동작구 동작대로 21,종합병원,102006,주출입구 높이차이 제거,이용가능
2187,10634,메디아이여성병원,37.656488700000004,127.0670718,서울특별시 노원구 노원로 448,종합병원,102010,주출입구 높이차이 제거,이용가능
2191,10635,메디켈센터,37.4739076,126.9181669,서울특별시 관악구 난곡로 214,종합병원,102014,주출입구 높이차이 제거,이용가능
2194,10636,메디파크의원,37.6658216,127.07791680000001,서울특별시 노원구 덕릉로 768,종합병원,102018,주출입구 높이차이 제거,이용불편
2199,10637,메디힐병원별관,37.5371988,126.8269689,서울특별시 양천구 남부순환로 330,종합병원,102022,주출입구 높이차이 제거,이용가능
2204,10638,메디힐병원본관,37.53724860000001,126.8277922,서울특별시 양천구 남부순환로 331,종합병원,102027,주출입구 높이차이 제거,이용가능
2209,10639,명지성모병원,37.493863,126.8992713,서울특별시 영등포구 도림로  156,종합병원,102032,주출입구 높이차이 제거,이용가능
2214,10640,명지춘혜병원,37.5006638,126.8970392,서울특별시 영등포구 대림로 223,종합병원,102037,주출입구 높이차이 제거,이용가능
2219,10641,모네여성병원,37.653725099999996,127.0678953,서울특별시 노원구 노원로 416,종합병원,102042,주출입구 높이차이 제거,이용불편
2223,10642,모커리 병원(물리치료실),37.4926761,127.04287420000001,서울특별시 강남구 도곡로 218,종합병원,102047,주출입구 높이차이 제거,이용가능
2229,10643,모커리한방병원,37.492670200000006,127.0427039,서울특별시 강남구 도곡로 216,종합병원,102052,주출입구 높이차이 제거,이용가능
2233,10644,목동라테라산후조리원,37.533976700000004,126.8633384,서울특별시 강서구 등촌로  45,종합병원,102056,주출입구 높이차이 제거,이용불편
2239,10645,목동연세병원,37.525304999999996,126.86417469999999,서울특별시 양천구 목동로 189,종합병원,102061,주출입구 높이차이 제거,이용가능
2240,10646,문현치과의원,37.481469399999995,126.9142094,서울특별시 관악구 남부순환로 1474,종합병원,102065,주출입구 높이차이 제거,이용가능
2247,10647,문화빌딩(서울수정형외과),37.540295799999996,127.1268159,서울특별시 강동구 구천면로  200,종합병원,102070,주출입구 높이차이 제거,이용가능
2252,10648,미병원,37.52347570000001,127.0312247,서울특별시 강남구 논현로168길 35,종합병원,102075,주출입구 높이차이 제거,이용가능
2257,10650,미자인 의원,37.5239566,127.0422186,서울특별시 강남구 도산대로  423,종합병원,102081,주출입구 높이차이 제거,이용가능
2263,10651,미즈메디병원,37.551719,126.83573840000001,서울특별시 강서구 강서로47가길  19,종합병원,102086,주출입구 높이차이 제거,이용불편
2268,10653,밀레니엄차과 병원,37.5698841,126.9860512,서울특별시 종로구 종로 78,종합병원,102094,주출입구 높이차이 제거,이용가능
2272,10654,바로선병원,37.660347200000004,127.0421345,서울특별시 도봉구 도봉로   628,종합병원,102099,주출입구 높이차이 제거,이용가능
2279,10655,바른본병원,37.553519200000004,127.07716979999998,서울특별시 광진구 능동로 261,종합병원,102104,주출입구 높이차이 제거,이용불편
2282,10656,바비페이스 병원,37.5082725,127.0231581,서울특별시 강남구 강남대로 516,종합병원,102109,주출입구 높이차이 제거,이용가능
2294,10659,베드로병원(증축 및 대수선),37.48535800000001,127.0377822,서울특별시 강남구 남부순환로 2633,종합병원,102119,주출입구 높이차이 제거,이용가능
2297,10660,베스티안 병원,37.4980274,127.0573038,서울특별시 강남구 도곡로 429,종합병원,102124,주출입구 높이차이 제거,이용가능
2302,10661,베트로병원,37.557726,126.9570126,서울특별시 서대문구 신촌로37길  10,종합병원,102129,주출입구 높이차이 제거,이용불편
2306,10662,보문효사랑병원,37.5797437,127.02273970000002,서울특별시 성북구 보문로 46,종합병원,102133,주출입구 높이차이 제거,이용불편
2310,10663,본앤본정형외과,37.562508799999996,126.851146,서울특별시 강서구 공항대로43길 123,종합병원,102137,주출입구 높이차이 제거,이용가능
2314,10664,부민병원,37.5568464,126.85091440000001,서울특별시 강서구 공항대로  389,종합병원,102141,주출입구 높이차이 제거,이용가능
2319,10665,사랑의 병원,37.4796222,126.9562942,서울특별시 관악구 남부순환로 1860,종합병원,102146,주출입구 높이차이 제거,이용불편
2323,10666,삼성미래여성병원,37.491228799999995,126.84040719999999,서울특별시 구로구 서해안로 2296,종합병원,102150,주출입구 높이차이 제거,이용가능
2328,10667,삼성서울병원,37.4895794,127.08785230000001,서울특별시 강남구 일원로 81,종합병원,102155,주출입구 높이차이 제거,이용가능
2333,10668,삼성제일병원신관,37.564752399999996,126.98173090000002,서울특별시 중구 남대문로 81,종합병원,102160,주출입구 높이차이 제거,이용불편
2338,10670,삼육의료원장례식장,37.5879909,127.06530659999999,서울특별시 동대문구 망우로 82,종합병원,102169,주출입구 높이차이 제거,이용가능
2343,10671,상계백병원,37.6485282,127.0631233,서울특별시 노원구 동일로 1342,종합병원,102174,주출입구 높이차이 제거,이용가능
2348,10672,상계빌딩(굳쎈정형외과),37.6778453,127.05493510000001,서울특별시 노원구 동일로 1673,종합병원,102179,주출입구 높이차이 제거,이용가능
2350,10673,상계정형외과의원,37.6580879,127.07139270000002,서울특별시 노원구 노원로26길 181,종합병원,102183,주출입구 높이차이 제거,이용가능
2355,10674,상쾌한아침외과의원,37.653585299999996,127.0604094,서울특별시 노원구 동일로 1401,종합병원,102186,주출입구 높이차이 제거,이용가능
2359,10675,새길병원,37.6566385,127.0137355,서울특별시 도봉구 삼양로 600,종합병원,102190,주출입구 높이차이 제거,이용가능
2365,10676,새보람요양병원,37.66212520000001,127.04109340000001,서울특별시 도봉구 방학로3길  13,종합병원,102195,주출입구 높이차이 제거,이용가능
2372,10680,새움병원,37.473762799999996,126.89797539999999,서울특별시 금천구 시흥대로  449,종합병원,102207,주출입구 높이차이 제거,이용불편
2377,10681,새한빛병원,37.6381295,127.03003670000001,서울특별시 강북구 한천로 1002,종합병원,102212,주출입구 높이차이 제거,이용가능
2381,10682,새희망병원,37.4934709,127.1429277,서울특별시 송파구 오금로 488,종합병원,102217,주출입구 높이차이 제거,이용가능
2387,10683,서대문구보건소 천연분소,37.5696175,126.96132450000002,서울특별시 서대문구 독립문로 27,종합병원,102222,주출입구 높이차이 제거,이용가능
2391,10685,서울 참병원,37.54082020000001,126.89502040000002,서울특별시 영등포구 양평로22사길 9,종합병원,102230,주출입구 높이차이 제거,이용가능
2395,10686,서울대학교병원,37.5795742,126.9989953,서울특별시 종로구 대학로  101,종합병원,102234,주출입구 높이차이 제거,이용가능
2399,10688,서울대효병원,37.5511272,126.8357821,서울특별시 강서구 강서로47가길 33,종합병원,102243,주출입구 높이차이 제거,이용불편
2406,10690,서울밝은세상 안과(한양타운),37.5256112,127.03941299999998,서울특별시 강남구 선릉로 823,종합병원,102249,주출입구 높이차이 제거,이용가능
2412,10691,서울백병원,37.5611241,126.99968059999999,서울특별시 중구 퇴계로46길 35,종합병원,102254,주출입구 높이차이 제거,이용불편
2415,10692,서울베스트병원,37.6192886,127.02928999999999,서울특별시 강북구 도봉로 114,종합병원,102259,주출입구 높이차이 제거,이용불편
2419,10694,서울병원,37.60886179999999,126.9307608,서울특별시 은평구 진흥로  191,종합병원,102267,주출입구 높이차이 제거,이용가능
2425,10695,서울보훈병원,37.530634,127.1481606,서울특별시 강동구 진황도로61길  53,종합병원,102272,주출입구 높이차이 제거,이용가능
2428,10696,서울복지병원,37.493250399999994,126.897908,서울특별시 영등포구 도림로  142,종합병원,102277,주출입구 높이차이 제거,이용불편
2434,10697,서울선병원,37.598636299999995,127.09364679999999,서울특별시 중랑구 망우로 373,종합병원,102282,주출입구 높이차이 제거,이용가능
2439,10698,서울성모병원,37.500944399999995,127.00511540000001,서울특별시 서초구 반포대로  222,종합병원,102287,주출입구 높이차이 제거,이용가능
2442,10699,서울성심병원,37.5843076,127.04972959999999,서울특별시 동대문구 왕산로  259,종합병원,102292,주출입구 높이차이 제거,이용가능
2451,10701,서울실버요양병원,37.5919277,127.0716732,서울특별시 중랑구 망우로 166-17,종합병원,102300,주출입구 높이차이 제거,이용가능
2456,10702,서울연세요양병원,37.6034723,127.0368213,서울특별시 성북구 오패산로1길 1,종합병원,102304,주출입구 높이차이 제거,이용가능
2461,10703,서울외과,37.5034232,127.0903244,서울특별시 송파구 백제고분로  214,종합병원,102308,주출입구 높이차이 제거,이용가능
2465,10704,서울요양병원,37.4989806,126.9336803,서울특별시 동작구 성대로 43,종합병원,102313,주출입구 높이차이 제거,이용가능
2470,10705,서울의료원(강남분원),37.5123691,127.0664019,서울특별시 강남구 봉은사로114길 43,종합병원,102318,주출입구 높이차이 제거,이용가능
2474,10707,서울장례식장,37.4846995,126.8746051,서울특별시 금천구 서부샛길  732,종합병원,102327,주출입구 높이차이 제거,이용불편
2480,10708,서울재활병원,37.605172700000004,126.9075445,서울특별시 은평구 갈현로11길  30,종합병원,102331,주출입구 높이차이 제거,이용가능
2482,10709,서울적십자병원(장례식장),37.5670015,126.96703500000001,서울특별시 종로구 새문안로 9,종합병원,102335,주출입구 높이차이 제거,이용가능
2487,10711,서울척병원,37.6088547,127.02927120000001,서울특별시 성북구 동소문로47길  8,종합병원,102342,주출입구 높이차이 제거,이용가능
2492,10713,"서울팀메이트치과,리뉴미치과(오플란트치과)",37.5415927,126.8391239,서울특별시 강서구 화곡로 157,종합병원,102350,주출입구 높이차이 제거,이용가능
2497,10714,서울현대병원,37.640262,127.0285325,서울특별시 강북구 도봉로 374,종합병원,102354,주출입구 높이차이 제거,이용가능
2502,10715,서울효요양병원,37.6580237,127.01408390000002,서울특별시 도봉구 삼양로  616,종합병원,102359,주출입구 높이차이 제거,이용가능
2506,10716,서초보건소,37.483569,127.032598,서울특별시 서초구 남부순환로  2584,종합병원,102364,주출입구 높이차이 제거,이용가능
2511,10717,석플란트 치과,37.52093789999999,127.033243,서울특별시 강남구 도산대로 238,종합병원,102368,주출입구 높이차이 제거,이용가능
2516,10718,선양신경외과(수의원),37.5502548,126.8737377,서울특별시 강서구 양천로  699,종합병원,102373,주출입구 높이차이 제거,이용불편
2523,10720,선정신과의원,37.5488844,126.8360228,서울특별시 강서구 강서로 259,종합병원,102381,주출입구 높이차이 제거,이용가능
2528,10721,선한이웃병원,37.6149088,127.0636679,서울특별시 노원구 화랑로 323,종합병원,102385,주출입구 높이차이 제거,이용가능
2532,10722,성가치과,37.612817,126.9152531,서울특별시 은평구 서오릉로  166,종합병원,102389,주출입구 높이차이 제거,이용가능
2536,10723,성누가의원,37.478924400000004,127.0089655,서울특별시 서초구 남부순환로315길 1,종합병원,102393,주출입구 높이차이 제거,이용가능
2539,10724,성동보건소,37.56750260000001,127.03269109999998,서울특별시 성동구 마장로23길  12,종합병원,102397,주출입구 높이차이 제거,이용불편
2543,10725,성바오로관절센터,37.579274,127.04404850000002,서울특별시 동대문구 왕산로36길 7,종합병원,102400,주출입구 높이차이 제거,이용가능
2548,10726,성바오로병원,37.5792928,127.04346470000002,서울특별시 동대문구 왕산로 180,종합병원,102405,주출입구 높이차이 제거,이용가능
2553,10727,성북보건소,37.602717,127.03954660000001,서울특별시 성북구 화랑로 63,종합병원,102410,주출입구 높이차이 제거,이용불편
2558,10728,성북중앙병원,37.5968751,127.03559650000001,서울특별시 성북구 종암로 72,종합병원,102415,주출입구 높이차이 제거,이용불편
2564,10730,성신병원,37.624988,127.02632759999999,서울특별시 강북구 도봉로 181,종합병원,102421,주출입구 높이차이 제거,이용가능
2570,10731,성심고려병원,37.46676160000001,126.89409750000002,서울특별시 금천구 범안로 1191,종합병원,102425,주출입구 높이차이 제거,이용가능
2573,10732,성심메디컬의원,37.5961232,127.0999378,서울특별시 중랑구 용마산로 503,종합병원,102430,주출입구 높이차이 제거,이용가능
2579,10733,성애병원 본관,37.512049499999996,126.92238020000002,서울특별시 영등포구 여의대방로53길 22,종합병원,102435,주출입구 높이차이 제거,이용불편
2585,10735,성지병원,37.4766045,126.89289140000001,서울특별시 금천구 가산로  122,종합병원,102442,주출입구 높이차이 제거,이용불편
2588,10736,세란병원,37.5751835,126.95746070000001,서울특별시 종로구 통일로 256,종합병원,102447,주출입구 높이차이 제거,이용불편
2593,10739,세이페병원,37.566578299999996,127.0616386,서울특별시 동대문구 한천로 49,종합병원,102461,주출입구 높이차이 제거,이용가능
2599,10740,소리의원@강서점,37.5450178,126.83676489999999,서울특별시 강서구 강서로  215-1,종합병원,102466,주출입구 높이차이 제거,이용가능
2602,10741,송도병원,37.558511100000004,126.84279950000001,서울특별시 강서구 공항대로  315,종합병원,102470,주출입구 높이차이 제거,이용가능
2603,10742,송파참병원,37.5035432,127.137425,서울특별시 송파구 마천로 164,종합병원,102474,주출입구 높이차이 제거,이용가능
2609,10743,송파청병원,37.5137931,127.1146963,서울특별시 송파구 백제고분로 488,종합병원,102479,주출입구 높이차이 제거,이용가능
2613,10744,수내과,37.4805499,126.9091514,서울특별시 금천구 남부순환로  1426,종합병원,102483,주출입구 높이차이 제거,이용가능
2617,10745,순천향대학교병원(교수연구동),37.533803999999996,127.00425790000001,서울특별시 용산구 대사관로 59,종합병원,102487,주출입구 높이차이 제거,이용가능
2622,10746,스타병원,37.5445292,126.83805430000001,서울특별시 강서구 강서로  206,종합병원,102491,주출입구 높이차이 제거,이용불편
2626,10747,시너지병원,37.516146,127.0365822,서울특별시 강남구 학동로 309,종합병원,102495,주출입구 높이차이 제거,이용가능
2630,10748,시립동부병원,37.5753635,127.0315258,서울특별시 동대문구 무학로 124,종합병원,102500,주출입구 높이차이 제거,이용불편
2636,10749,시립북부노인병원,37.604334,127.10774939999999,서울특별시 중랑구 양원역로 38,종합병원,102505,주출입구 높이차이 제거,이용가능
2641,10750,시립은평병원,37.5934797,126.92356389999999,서울특별시 은평구 백련산로 90,종합병원,102510,주출입구 높이차이 제거,이용가능
2645,10751,시립장애인구강진료센터,37.5667241,127.0328111,서울특별시 성동구 마장로  207,종합병원,102515,주출입구 높이차이 제거,이용가능
2651,10752,시소모타워(강남물방울치과),37.510623700000004,127.0550563,서울특별시 강남구 삼성로 548,종합병원,102520,주출입구 높이차이 제거,이용가능
2656,10753,신아타운(병원),37.6064619,127.0947354,서울특별시 중랑구 봉화산로 194,종합병원,102525,주출입구 높이차이 제거,이용가능
2659,10754,신우요양병원,37.5795382,127.0681561,서울특별시 동대문구 한천로 207,종합병원,102530,주출입구 높이차이 제거,이용가능
2666,10755,신촌리더스병원,37.5503706,126.9326895,서울특별시 마포구 서강로  82,종합병원,102535,주출입구 높이차이 제거,이용가능
2670,10756,신촌연세병원,37.5525869,126.9337353,서울특별시 마포구 서강로 110,종합병원,102539,주출입구 높이차이 제거,이용가능
2676,10758,신화병원,37.5251061,126.9056672,서울특별시 영등포구 영중로   100,종합병원,102546,주출입구 높이차이 제거,이용불편
2682,10759,실로암안과병원,37.5460999,126.8622409,서울특별시 강서구 등촌로  181,종합병원,102551,주출입구 높이차이 제거,이용불편
2687,10760,심청요양병원,37.5830193,127.0209729,서울특별시 성북구 보문로  86,종합병원,102556,주출입구 높이차이 제거,이용가능
2690,10761,아산병원,37.52657620000001,127.10793500000001,서울특별시 송파구 올림픽로43길 88,종합병원,102561,주출입구 높이차이 제거,이용가능
2697,10762,아이디병원,37.5252071,127.02507720000001,서울특별시 강남구 압구정로 148,종합병원,102566,주출입구 높이차이 제거,이용가능
2701,10763,아이엠치과병원,37.52609,126.87108400000001,서울특별시 양천구 오목로 299,종합병원,102571,주출입구 높이차이 제거,이용가능
2705,10764,아이제이스엠비.산부인과의원,37.555938,126.9098487,서울특별시 마포구 월드컵로 79,종합병원,102574,주출입구 높이차이 제거,이용가능
2709,10765,아이젬산후조리원,37.6076981,126.9220584,서울특별시 은평구 서오릉로 82,종합병원,102578,주출입구 높이차이 제거,이용가능
2714,10766,아카시아병원,37.46810670000001,126.8985623,서울특별시 금천구 시흥대로114길 5,종합병원,102583,주출입구 높이차이 제거,이용불편
2718,10767,안강병원,37.493925399999995,127.0395906,서울특별시 강남구 논현로 323,종합병원,102587,주출입구 높이차이 제거,이용가능
2723,10768,안세병원,37.5237823,127.04113459999999,서울특별시 강남구 도산대로 417,종합병원,102592,주출입구 높이차이 제거,이용가능
2726,10769,안정형외과,37.483740000000004,127.0083331,서울특별시 서초구 효령로  221,종합병원,102596,주출입구 높이차이 제거,이용불편
2731,10770,양병원,37.5340904,127.14008059999999,서울특별시 강동구 천호대로  1159,종합병원,102600,주출입구 높이차이 제거,이용불편
2736,10771,양병원제2종합검진센터,37.5343523,127.13980079999999,서울특별시 강동구 진황도로 128,종합병원,102605,주출입구 높이차이 제거,이용불편
2740,10772,양재 최의원,37.48624270000001,127.04404609999999,서울특별시 강남구 남부순환로  2725,종합병원,102610,주출입구 높이차이 제거,이용가능
2749,10774,어린이치과,37.4840222,126.9815564,서울특별시 동작구 동작대로 83,종합병원,102618,주출입구 높이차이 제거,이용가능
2754,10775,에머럴드 빌딩(BK의원),37.5168549,127.02216489999999,서울특별시 강남구 도산대로  122,종합병원,102622,주출입구 높이차이 제거,이용가능
2760,10776,에스플란트 치과병원,37.52298,127.04050159999998,서울특별시 강남구 도산대로 410,종합병원,102627,주출입구 높이차이 제거,이용가능
2768,10778,에이치큐브병원,37.6583061,127.04106100000001,서울특별시 도봉구 도봉로   604,종합병원,102636,주출입구 높이차이 제거,이용불편
2774,10779,여러분병원,37.507223100000004,127.03260300000001,서울특별시 강남구 봉은사로  171,종합병원,102641,주출입구 높이차이 제거,이용가능
2777,10780,연세SK병원,37.5110403,127.023199,서울특별시 강남구 학동로4길 7,종합병원,102646,주출입구 높이차이 제거,이용가능
2783,10781,연세노블병원,37.604071399999995,126.92447560000001,서울특별시 은평구 서오릉로  37,종합병원,102651,주출입구 높이차이 제거,이용가능
2789,10788,연세무척나은병원,37.55627379999999,127.08091840000002,서울특별시 광진구 천호대로 568-1,종합병원,102686,주출입구 높이차이 제거,이용가능
2793,10789,연세바른병원,37.4843925,126.98058130000001,서울특별시 동작구 사당로 300,종합병원,102691,주출입구 높이차이 제거,이용가능
2795,10790,연세방병원,37.6285396,127.070654,서울특별시 노원구 동일로197길 11,종합병원,102696,주출입구 높이차이 제거,이용가능
2801,10791,연세병원,37.560649,127.0361528,서울특별시 성동구 왕십리로  296,종합병원,102701,주출입구 높이차이 제거,이용가능
2807,10792,연세사랑병원,37.5097171,127.1138271,서울특별시 송파구 오금로  173,종합병원,102706,주출입구 높이차이 제거,이용가능
2810,10793,연세사랑요양병원,37.6543558,127.01318729999998,서울특별시 도봉구 삼양로 574,종합병원,102709,주출입구 높이차이 제거,이용가능
2815,10794,연세사랑정형외과,37.619932299999995,127.0745435,서울특별시 노원구 동일로 1005,종합병원,102713,주출입구 높이차이 제거,이용가능
2822,10796,연세영동병원,37.540110399999996,127.1271158,서울특별시 강동구 구천면로 202,종합병원,102721,주출입구 높이차이 제거,이용가능
2829,10798,연세정형외과,37.4984225,127.1470348,서울특별시 송파구 거마로  62,종합병원,102729,주출입구 높이차이 제거,이용가능
2834,10800,열린산후조리원,37.6073777,127.010112,서울특별시 성북구 보국문로 33,종합병원,102739,주출입구 높이차이 제거,이용가능
2839,10801,영동병원,37.5632559,127.05860459999998,서울특별시 동대문구 한천로 4,종합병원,102743,주출입구 높이차이 제거,이용가능
2845,10802,영등포한방병원,37.5200717,126.90183229999998,서울특별시 영등포구 영신로34길   5,종합병원,102748,주출입구 높이차이 제거,이용불편
2851,10803,예닮요양병원,37.5364215,127.1390986,서울특별시 강동구 양재대로 1461,종합병원,102753,주출입구 높이차이 제거,이용불편
2855,10804,예원요양센터,37.600443,127.10073600000001,서울특별시 중랑구 용마산로 554,종합병원,102758,주출입구 높이차이 제거,이용가능
2857,10806,온누리병원,37.6122209,127.0587455,서울특별시 성북구 화랑로 271,종합병원,102766,주출입구 높이차이 제거,이용가능
2863,10807,올림픽병원,37.5027516,127.0980197,서울특별시 송파구 백제고분로  283,종합병원,102771,주출입구 높이차이 제거,이용가능
2869,10808,올림픽정형외과의원,37.4915798,127.11640890000001,서울특별시 송파구 중대로 68,종합병원,102776,주출입구 높이차이 제거,이용가능
2875,10811,우리들병원,37.6425425,127.02265870000001,서울특별시 강북구 한천로 1083,종합병원,102786,주출입구 높이차이 제거,이용가능
2879,10813,우이새길병원,37.65745020000001,127.01394479999999,서울특별시 도봉구 삼양로  610,종합병원,102795,주출입구 높이차이 제거,이용가능
2884,10814,욱현하이브(요양병원),37.6396884,127.0741354,서울특별시 노원구 노원로 246,종합병원,102800,주출입구 높이차이 제거,이용가능
2889,10815,웰튼병원,37.5540457,126.8371563,서울특별시 강서구 강서로  318,종합병원,102805,주출입구 높이차이 제거,이용가능
2893,10816,위담한방병원,37.50142020000001,127.0541061,서울특별시 강남구 역삼로 430,종합병원,102810,주출입구 높이차이 제거,이용가능
2898,10817,유광사병원,37.5436076,126.83890840000001,서울특별시 강서구 강서로  194,종합병원,102814,주출입구 높이차이 제거,이용불편
2902,10818,유디 치과의원(현정빌딩),37.50385120000001,127.04817340000001,서울특별시 강남구 테헤란로 332,종합병원,102818,주출입구 높이차이 제거,이용가능
2908,10819,유디치과의원,37.5399683,127.12443529999999,서울특별시 강동구 올림픽로 658,종합병원,102823,주출입구 높이차이 제거,이용불편
2912,10820,윤호 함춘 병원,37.5288466,127.03442340000002,서울특별시 강남구 압구정로 304,종합병원,102827,주출입구 높이차이 제거,이용불편
2915,10821,을지병원(본관동),37.6364794,127.0699355,서울특별시 노원구 한글비석로 68,종합병원,102831,주출입구 높이차이 제거,이용불편
2921,10822,을지병원(의료동),37.6359555,127.07052890000001,서울특별시 노원구 공릉로 327,종합병원,102836,주출입구 높이차이 제거,이용가능
2925,10823,을지병원(행정동),37.635679700000004,127.06985729999998,서울특별시 노원구 공릉로59나길 52,종합병원,102841,주출입구 높이차이 제거,이용불편
2930,10824,의료시설(신애요양병원),37.6468199,127.06260449999999,서울특별시 노원구 동일로 1323,종합병원,102846,주출입구 높이차이 제거,이용가능
2937,10826,이너스치과병원,37.4827662,126.93985890000002,서울특별시 관악구 남부순환로 1710,종합병원,102853,주출입구 높이차이 제거,이용가능
2941,10827,이대목동병원 병원동,37.5362859,126.8862379,서울특별시 양천구 안양천로 1071,종합병원,102858,주출입구 높이차이 제거,이용가능
2948,10829,이엘치과의원,37.5337386,126.90117109999998,서울특별시 영등포구 당산로 223,종합병원,102864,주출입구 높이차이 제거,이용가능
2953,10830,이영수의원,37.6484508,127.0342193,서울특별시 도봉구 도봉로   477,종합병원,102869,주출입구 높이차이 제거,이용불편
2958,10831,이지애 성형외과 병원,37.5229482,127.02927040000002,서울특별시 강남구 압구정로30길 67,종합병원,102872,주출입구 높이차이 제거,이용가능
2961,10832,이지펠리스(한걸음병원),37.59648720000001,127.08755590000001,서울특별시 중랑구 망우로 316,종합병원,102877,주출입구 높이차이 제거,이용가능
2966,10833,인애가병원,37.5052764,127.13517340000001,서울특별시 송파구 마천로15길 6,종합병원,102882,주출입구 높이차이 제거,이용가능
2969,10834,인애가한방병원(우신향한방병원),37.528861600000006,127.12299180000001,서울특별시 강동구 성내로6길  15,종합병원,102887,주출입구 높이차이 제거,이용가능
2978,10836,인화재활병원,37.5173415,126.84117260000001,서울특별시 양천구 신월로 156,종합병원,102896,주출입구 높이차이 제거,이용가능
2982,10837,자생한방병원(대경프라자),37.52359000000001,126.8757936,서울특별시 양천구 신목로 102,종합병원,102899,주출입구 높이차이 제거,이용가능
2987,10838,장스여성병원,37.599654,127.09774409999999,서울특별시 중랑구 망우로 411,종합병원,102903,주출입구 높이차이 제거,이용가능
2992,10841,제일병원(본관),37.56511,126.98887090000001,서울특별시 중구 마른내로 9,종합병원,102918,주출입구 높이차이 제거,이용불편
2998,10843,조앤조병원,37.6003158,127.1047423,서울특별시 중랑구 망우로 474,종합병원,102925,주출입구 높이차이 제거,이용가능
3004,10844,종로보건소,37.58184110000001,126.9692197,서울특별시 종로구 자하문로19길 36,종합병원,102930,주출입구 높이차이 제거,이용가능
3011,10846,중구보건분소청사,37.5656593,127.0159019,서울특별시 중구 다산로 253,종합병원,102937,주출입구 높이차이 제거,이용불편
3015,10847,중구보건소청사,37.5645915,127.01511049999999,서울특별시 중구 다산로39길 16,종합병원,102942,주출입구 높이차이 제거,이용불편
3021,10849,중랑프라임병원,37.6172311,127.079474,서울특별시 중랑구 공릉로 76,종합병원,102952,주출입구 높이차이 제거,이용가능
3026,10850,중앙대학교병원,37.5067481,126.96078390000001,서울특별시 동작구 흑석로 102,종합병원,102957,주출입구 높이차이 제거,이용가능
3030,10851,중앙병원장례식장,37.562194700000006,126.8092598,서울특별시 강서구 방화동로  12,종합병원,102962,주출입구 높이차이 제거,이용불편
3036,10852,차병원(별관),37.5067941,127.035055,서울특별시 강남구 논현로 566,종합병원,102967,주출입구 높이차이 제거,이용가능
3040,10853,참사랑병원,37.599863299999996,126.9164515,서울특별시 은평구 연서로  10,종합병원,102972,주출입구 높이차이 제거,이용불편
3045,10854,참소망의원,37.5333949,127.123392,서울특별시 강동구 천호옛길 48,종합병원,102976,주출입구 높이차이 제거,이용가능
3049,10855,참요양병원,37.5428857,126.83968829999999,서울특별시 강서구 강서로  182,종합병원,102981,주출입구 높이차이 제거,이용불편
3054,10856,참포도나무병원,37.47993579999999,127.0386919,서울특별시 서초구 바우뫼로35길 32,종합병원,102985,주출입구 높이차이 제거,이용가능
3059,10857,창동제일의원,37.6519078,127.0455297,서울특별시 도봉구 노해로65길 17-13,종합병원,102990,주출입구 높이차이 제거,이용불편
3064,10858,천사병원,37.5765433,127.0477019,서울특별시 동대문구 서울시립대로 57,종합병원,102995,주출입구 높이차이 제거,이용가능
3069,10859,첫단추조산원,37.5903529,127.01102820000001,서울특별시 성북구 동소문로  48,종합병원,103000,주출입구 높이차이 제거,이용불편
3074,10860,청구성심병원,37.6208615,126.9197006,서울특별시 은평구 통일로  873,종합병원,103005,주출입구 높이차이 제거,이용가능
3084,10862,청산입시학원(청산빌딩튼튼병원)G8-F2,37.541002399999996,126.8389473,서울특별시 강서구 화곡로  154,종합병원,103013,주출입구 높이차이 제거,이용가능
3087,10863,청솔한의원,37.4990628,126.92877,서울특별시 동작구 국사봉1길 3,종합병원,103018,주출입구 높이차이 제거,이용가능
3092,10864,청플란트치과,37.4837367,126.98159790000001,서울특별시 동작구 동작대로 79-1,종합병원,103023,주출입구 높이차이 제거,이용가능
3098,10865,청하병원,37.507275,126.9401875,서울특별시 동작구 장승배기로 108,종합병원,103027,주출입구 높이차이 제거,이용가능
3102,10867,최차혜병원,37.5475805,127.0677088,서울특별시 광진구 동일로30길 9,종합병원,103033,주출입구 높이차이 제거,이용불편
3107,10868,최차혜병원치과,37.547602399999995,127.06744209999998,서울특별시 광진구 동일로30길 5,종합병원,103038,주출입구 높이차이 제거,이용가능
3109,10869,친구병원,37.5422911,127.12531070000001,서울특별시 강동구 올림픽로 684,종합병원,103041,주출입구 높이차이 제거,이용불편
3115,10870,코리아병원,37.5731883,127.071546,서울특별시 동대문구 장한로 143,종합병원,103045,주출입구 높이차이 제거,이용가능
3118,10871,퀸스메디산부인과,37.6245378,127.0729963,서울특별시 노원구 동일로 1059,종합병원,103049,주출입구 높이차이 제거,이용가능
3126,10873,큰사랑노인전문병원,37.47301420000001,127.05273899999999,서울특별시 강남구 논현로2길 30,종합병원,103057,주출입구 높이차이 제거,이용가능
3133,10875,태릉마이크로병원,37.6182739,127.07487009999998,서울특별시 노원구 동일로 987,종합병원,103067,주출입구 높이차이 제거,이용불편
3136,10876,튼튼병원,37.5347027,127.1375125,서울특별시 강동구 천호대로 1133,종합병원,103072,주출입구 높이차이 제거,이용불편
3141,10880,튼튼병원(용도변경),37.5213099,127.055777,서울특별시 강남구 영동대로 713,종합병원,103092,주출입구 높이차이 제거,이용가능
3145,10881,튼튼성모정형외과의원,37.5402275,126.8342017,서울특별시 강서구 화곡로 111,종합병원,103097,주출입구 높이차이 제거,이용불편
3150,10882,파워스빌딩(린산부인과 입원동),37.5723194,127.0699469,서울특별시 동대문구 답십리로 266,종합병원,103101,주출입구 높이차이 제거,이용가능
3155,10884,편강한의원,37.4843532,127.02839440000001,서울특별시 서초구 서운로1길  21,종합병원,103111,주출입구 높이차이 제거,이용가능
3158,10885,포근한노인전문 병원,37.632297799999996,127.02419669999999,서울특별시 강북구 도봉로 266,종합병원,103116,주출입구 높이차이 제거,이용가능
3165,10886,포근한맘요양병원,37.657077,127.01383870000001,서울특별시 도봉구 삼양로 606,종합병원,103121,주출입구 높이차이 제거,이용가능
3169,10887,하나 이비인후과 병원,37.4979432,127.04297820000001,서울특별시 강남구 역삼로 245,종합병원,103126,주출입구 높이차이 제거,이용가능
3176,10888,하나효요양원,37.6116011,126.9162395,서울특별시 은평구 서오릉로  149,종합병원,103130,주출입구 높이차이 제거,이용가능
3179,10889,하이트 치과의원(쌍봉빌딩),37.528591,127.03414509999999,서울특별시 강남구 언주로  874,종합병원,103135,주출입구 높이차이 제거,이용가능
3184,10890,학교법인 인제학원 인당관,37.5560071,127.0101243,서울특별시 중구 동호로 202,종합병원,103140,주출입구 높이차이 제거,이용불편
3191,10891,한강성심병원,37.5234398,126.91035430000001,서울특별시 영등포구 버드나루로  55,종합병원,103145,주출입구 높이차이 제거,이용가능
3194,10892,한강성심병원별관1,37.5231811,126.9096992,서울특별시 영등포구 버드나루로7길 12,종합병원,103150,주출입구 높이차이 제거,이용불편
3200,10895,한국원자력의학원자력병원,37.6288213,127.08269650000001,서울특별시 노원구 노원로 75,종합병원,103160,주출입구 높이차이 제거,이용가능
3206,10897,한마음종합클리닉,37.662180299999996,127.03400079999999,서울특별시 도봉구 방학로 163,종합병원,103168,주출입구 높이차이 제거,이용가능
3211,10898,한맘 플러스 병원,37.5035364,127.0594663,서울특별시 강남구 역삼로 509,종합병원,103172,주출입구 높이차이 제거,이용가능
3217,10899,한서병원,37.5003351,127.0391867,서울특별시 강남구 논현로86길 21,종합병원,103177,주출입구 높이차이 제거,이용불편
3219,10900,한성빌딩(규림한의원),37.5264583,126.8639232,서울특별시 양천구 목동로 201,종합병원,103181,주출입구 높이차이 제거,이용가능
3223,10901,한양대병원,37.554503600000004,127.04661100000001,서울특별시 성동구 왕십리로 222,종합병원,103184,주출입구 높이차이 제거,이용가능
3227,10902,한일병원,37.646140100000004,127.02912279999998,서울특별시 도봉구 우이천로 308,종합병원,103189,주출입구 높이차이 제거,이용가능
3231,10903,햇빛여성전문병원,37.6205839,127.0280741,서울특별시 강북구 도봉로 131,종합병원,103194,주출입구 높이차이 제거,이용불편
3236,10904,햇살가득한가정의학과의원,37.5353742,126.8632043,서울특별시 강서구 등촌로  59-1,종합병원,103198,주출입구 높이차이 제거,이용가능
3241,10905,행복한병원(삼부빌딩),37.599422499999996,127.0968725,서울특별시 중랑구 망우로 403,종합병원,103202,주출입구 높이차이 제거,이용가능
3251,10908,혜담요양병원,37.6692231,127.0452965,서울특별시 도봉구 도봉로152길 26,종합병원,103213,주출입구 높이차이 제거,이용가능
3255,10909,혜당한방병원,37.54802520000001,126.91679599999999,서울특별시 마포구 독막로 32,종합병원,103216,주출입구 높이차이 제거,이용불편
3259,10910,혜민병원,37.535407899999996,127.08362460000001,서울특별시 광진구 자양로 85,종합병원,103220,주출입구 높이차이 제거,이용불편
3263,10911,호산산부인과,37.5285643,127.0333467,서울특별시 강남구 언주로 871,종합병원,103224,주출입구 높이차이 제거,이용가능
3267,10912,홍익병원본관,37.528463099999996,126.86363850000001,서울특별시 양천구 목동로 225,종합병원,103228,주출입구 높이차이 제거,이용가능
3272,10913,화곡보건분소,37.535470000000004,126.8411107,서울특별시 강서구 월정로30길  96,종합병원,103233,주출입구 높이차이 제거,이용불편
3277,10914,화인웰산후조리원,37.5787075,127.0226477,서울특별시 성북구 보문로  35,종합병원,103238,주출입구 높이차이 제거,이용가능
3280,10915,황세영산부인과(더와이즈병원),37.5422531,126.8423672,서울특별시 강서구 화곡로  188,종합병원,103242,주출입구 높이차이 제거,이용불편
3285,10916,효인병원,37.4794593,126.9034562,서울특별시 금천구 남부순환로  1372,종합병원,103246,주출입구 높이차이 제거,이용가능
3289,10917,희명병원,37.453747,126.9012821,서울특별시 금천구 시흥대로  224,종합병원,103250,주출입구 높이차이 제거,이용불편
3293,10918,힘찬병원,37.5592026,126.8406854,서울특별시 강서구 강서로56길  38,종합병원,103254,주출입구 높이차이 제거,이용가능
3298,10923,가락2동주민센터,37.4902451,127.1187912,서울특별시 송파구 중대로24길 6,지역자치센터,103276,주출입구 높이차이 제거,이용가능
3302,10924,가락본동주민센터,37.493863299999994,127.11876670000001,서울특별시 송파구 송파대로28길 3,지역자치센터,103280,주출입구 높이차이 제거,이용가능
3304,10925,가락지구대,37.498193,127.12532340000001,서울특별시 송파구 중대로 179,경찰서,103284,주출입구 높이차이 제거,이용가능
3311,10927,가리봉동주민센터,37.4813921,126.8936094,서울특별시 구로구 디지털로26길 5,지역자치센터,103288,주출입구 높이차이 제거,이용불편
3314,10928,가리봉지구대,37.4875908,126.8919379,서울특별시 구로구 디지털로31길 90,경찰서,103293,주출입구 높이차이 제거,이용불편
3318,10929,가리봉치안센터,37.479644,126.89299399999999,서울특별시 구로구 남부순환로107가길 16,경찰서,103297,주출입구 높이차이 제거,이용불편
3320,10930,가산동복합청사,37.4768947,126.89177509999999,서울특별시 금천구 가산로  129,경찰서,103300,주출입구 높이차이 제거,이용불편
3326,10931,가산우체국,37.4784533,126.89380770000001,서울특별시 금천구 남부순환로 1288,우체국,103305,주출입구 높이차이 제거,이용불편
3329,10932,가양1동주민센터,37.569497,126.8447222,서울특별시 강서구 허준로 30,지역자치센터,103308,주출입구 높이차이 제거,이용불편
3336,10933,가양2동주민센터,37.5673859,126.85125759999998,서울특별시 강서구 허준로  93,지역자치센터,103313,주출입구 높이차이 제거,이용가능
3339,10934,가양2치안센터,37.5671284,126.8513939,서울특별시 강서구 허준로 95,경찰서,103318,주출입구 높이차이 제거,이용불편
3343,10935,가양3동주민센터,37.561093799999995,126.8605592,서울특별시 강서구 허준로  202,지역자치센터,103321,주출입구 높이차이 제거,이용불편
3345,10936,가양동우체국,37.567246399999995,126.8515746,서울특별시 강서구 허준로 95-5,우체국,103326,주출입구 높이차이 제거,이용불편
3350,10937,가양지구대,37.559264399999996,126.85012420000001,서울특별시 강서구 화곡로65길  63,경찰서,103330,주출입구 높이차이 제거,이용불편
3353,10938,가좌지구대,37.57604970000001,126.9240553,서울특별시 서대문구 가재울로4길 51,경찰서,103333,주출입구 높이차이 제거,이용불편
3356,10939,가회동주민센터,37.580056899999995,126.9848011,서울특별시 종로구 북촌로  35,지역자치센터,103336,주출입구 높이차이 제거,이용가능
3361,10940,갈현1동주민센터,37.6237021,126.9167189,서울특별시 은평구 갈현로 301,지역자치센터,103340,주출입구 높이차이 제거,이용가능
3365,10941,갈현2동 주민센터,37.6185866,126.9158385,서울특별시 은평구 연서로27길 31-6,지역자치센터,103344,주출입구 높이차이 제거,이용가능
3370,10942,강남경찰서,37.5146351,127.04676620000001,서울특별시 강남구 선릉로116길 57,경찰서,103349,주출입구 높이차이 제거,이용가능
3373,10944,강남우체국,37.51837800000001,127.03444609999998,서울특별시 강남구 언주로 721,우체국,103356,주출입구 높이차이 제거,이용가능
3377,10945,강동경찰서,37.5292619,127.12385049999999,서울특별시 강동구 성내로 33,경찰서,103360,주출입구 높이차이 제거,이용가능
3380,10946,강동구청,37.530126,127.12377079999999,서울특별시 강동구 성내로 25,지역자치센터,103363,주출입구 높이차이 제거,이용불편
3383,10947,강동구청 별관,37.5306399,127.12394509999999,서울특별시 강동구 성내로3가길 19,지역자치센터,103368,주출입구 높이차이 제거,이용가능
3388,10949,강동우체국,37.536308899999995,127.1430813,서울특별시 강동구 양재대로112길 57,우체국,103375,주출입구 높이차이 제거,이용불편
3391,10950,강북구청,37.639748,127.02548200000001,서울특별시 강북구 도봉로89길  13,지역자치센터,103378,주출입구 높이차이 제거,이용불편
3396,10951,강북우체국,37.6240798,127.02811489999999,서울특별시 강북구 솔매로50길 55,우체국,103383,주출입구 높이차이 제거,이용불편
3400,10953,강서구청,37.550937,126.84964199999999,서울특별시 강서구 화곡로 302,지역자치센터,103392,주출입구 높이차이 제거,이용불편
3403,10954,강서구청 화곡별관,37.5497778,126.8509925,서울특별시 강서구 화곡로44나길 72,지역자치센터,103397,주출입구 높이차이 제거,이용불편
3409,10956,강서우체국,37.5652661,126.84074740000001,서울특별시 강서구 강서로  448,우체국,103405,주출입구 높이차이 제거,이용불편
3413,10957,개봉1동주민센터,37.500169,126.85152509999999,서울특별시 구로구 경인로33길 52,지역자치센터,103409,주출입구 높이차이 제거,이용가능
3417,10958,개봉2동주민센터,37.490850099999996,126.85654640000001,서울특별시 구로구 개봉로16가길 17,지역자치센터,103413,주출입구 높이차이 제거,이용불편
3418,10959,개봉3동주민센터,37.4860114,126.8538449,서울특별시 구로구 개봉로3길  47-5,지역자치센터,103416,주출입구 높이차이 제거,이용불편
3425,10961,개봉지구대,37.4918554,126.8564439,서울특별시 구로구 개봉로18길 5,경찰서,103421,주출입구 높이차이 제거,이용가능
3429,10962,개봉치안센터,37.4980294,126.85292620000001,서울특별시 구로구 경인로 293,경찰서,103425,주출입구 높이차이 제거,이용불편
3432,10963,개포 지구대,37.4797436,127.05118780000001,서울특별시 강남구 개포로  261,경찰서,103428,주출입구 높이차이 제거,이용가능
3434,10964,개포1동 우체국,37.4829899,127.06049920000001,서울특별시 강남구 선릉로 36,우체국,103431,주출입구 높이차이 제거,이용불편
3439,10965,개포1동 주민센터,37.4819717,127.0575019,서울특별시 강남구 개포로 310-17,지역자치센터,103435,주출입구 높이차이 제거,이용불편
3443,10966,개포4동 주민센터,37.4788478,127.05163600000002,서울특별시 강남구 개포로38길 12,지역자치센터,103439,주출입구 높이차이 제거,이용가능
3447,10967,개포동 우체국,37.488112,127.07376509999999,서울특별시 강남구 영동대로3길 7,우체국,103443,주출입구 높이차이 제거,이용불편
3452,10968,거여1동주민센터,37.4969522,127.14331509999998,서울특별시 송파구 오금로53길 32,지역자치센터,103447,주출입구 높이차이 제거,이용가능
3455,10969,거여2동주민센터,37.4935545,127.14513170000001,서울특별시 송파구 거마로2길  1,지역자치센터,103451,주출입구 높이차이 제거,이용가능
3460,10970,거여동우체국,37.4895808,127.14258799999999,서울특별시 송파구 양산로 3,우체국,103456,주출입구 높이차이 제거,이용가능
3464,10972,경찰청사,37.56336470000001,126.9674929,서울특별시 서대문구 통일로  97,경찰서,103462,주출입구 높이차이 제거,이용가능
3468,10974,고덕 우체국,37.5564513,127.16585,서울특별시 강동구 고덕로 362,우체국,103470,주출입구 높이차이 제거,이용불편
3474,10978,고덕2동 주민센터,37.5605161,127.1643852,서울특별시 강동구 아리수로78길 43-12,지역자치센터,103478,주출입구 높이차이 제거,이용불편
3477,10981,고척1동주민센터,37.50041289999999,126.8627965,서울특별시 구로구 중앙로3길 18-8,지역자치센터,103490,주출입구 높이차이 제거,이용가능
3482,10982,고척2동 주민센터,37.5067059,126.8586178,서울특별시 구로구 중앙로15길 22,지역자치센터,103494,주출입구 높이차이 제거,이용가능
3484,10983,고척동 우체국,37.50444,126.86174550000001,서울특별시 구로구 중앙로 76,우체국,103498,주출입구 높이차이 제거,이용불편
3488,10986,곰달래지구대,37.5329064,126.86316299999999,서울특별시 강서구 곰달래로59길 12,경찰서,103507,주출입구 높이차이 제거,이용불편
3491,10987,공덕동주민센터,37.550185299999995,126.9600332,서울특별시 마포구 만리재옛길 84,지역자치센터,103510,주출입구 높이차이 제거,이용가능
3494,10988,공덕지구대,37.5440033,126.9528768,서울특별시 마포구 만리재로 14,경찰서,103513,주출입구 높이차이 제거,이용가능
3498,10989,공릉2동치안센터,37.6226504,127.08664080000001,서울특별시 노원구 노원로1길 2,경찰서,103517,주출입구 높이차이 제거,이용불편
3500,10990,공릉동우체국,37.6184809,127.07573629999999,서울특별시 노원구 동일로 988,우체국,103521,주출입구 높이차이 제거,이용불편
3505,10991,공릉치안센터,37.6267194,127.07893119999999,서울특별시 노원구 공릉로 189,경찰서,103524,주출입구 높이차이 제거,이용가능
3508,10992,공항동우체국,37.561507399999996,126.81193950000001,서울특별시 강서구 공항대로  41,우체국,103527,주출입구 높이차이 제거,이용불편
3510,10993,공항동주민센터,37.558785,126.81009350000001,서울특별시 강서구 송정로 45,지역자치센터,103530,주출입구 높이차이 제거,이용가능
3515,10994,공항지구대,37.5623593,126.8082939,서울특별시 강서구 방화동로  5,경찰서,103535,주출입구 높이차이 제거,이용불편
3520,10996,관악구청,37.4815018,126.9102348,서울특별시 관악구 남부순환로 1435,지역자치센터,103544,주출입구 높이차이 제거,이용가능
3524,10997,관악산지구대,37.4737395,126.93540420000001,서울특별시 관악구 신림로28길 1,경찰서,103549,주출입구 높이차이 제거,이용가능
3530,10999,광나루지구대,37.5444545,127.1033392,서울특별시 광진구 아차산로 567,경찰서,103554,주출입구 높이차이 제거,이용가능
3536,11001,광장동주민센터,37.546892,127.103025,서울특별시 광진구 광장로 52,지역자치센터,103560,주출입구 높이차이 제거,이용불편
3539,11002,광진경찰서,37.5428595,127.08389790000001,서울특별시 광진구 자양로 167,경찰서,103563,주출입구 높이차이 제거,이용불편
3544,11005,광진우체국,37.5378744,127.09034879999999,서울특별시 광진구 강변역로 2,우체국,103575,주출입구 높이차이 제거,이용불편
3548,11006,광화문우체국,37.5698583,126.9781097,서울특별시 종로구 종로 6,우체국,103579,주출입구 높이차이 제거,이용불편
3553,11007,광희동청사,37.55187120000001,127.01257890000001,서울특별시 중구 동호로5길 19,경찰서,103582,주출입구 높이차이 제거,이용가능
3555,11008,광희지구대,37.55729270000001,126.97934240000001,서울특별시 중구 퇴계로8길 46,경찰서,103586,주출입구 높이차이 제거,이용가능
3558,11009,교남동 주민센터,37.571993299999995,126.9619051,서울특별시 종로구 송월길 154,지역자치센터,103589,주출입구 높이차이 제거,이용불편
3563,11011,교통센터,37.6124585,127.07878000000001,서울특별시 중랑구 공릉로2가길 6,지역자치센터,103595,주출입구 높이차이 제거,이용가능
3565,11012,구로1 치안센터,37.49118350000001,126.87515690000001,서울특별시 구로구 구일로 52,경찰서,103599,주출입구 높이차이 제거,이용가능
3568,11013,구로1동 주민센터,37.4930594,126.87577250000001,서울특별시 구로구 구일로4길 57,지역자치센터,103602,주출입구 높이차이 제거,이용가능
3573,11014,구로2 치안센터,37.4913771,126.8834703,서울특별시 구로구 구로동로 141,경찰서,103606,주출입구 높이차이 제거,이용불편
3575,11016,구로3동 주민센터,37.4862369,126.8933,서울특별시 구로구 디지털로31길 38-9,지역자치센터,103612,주출입구 높이차이 제거,이용불편
3580,11017,구로4동 우체국,37.4903468,126.8844281,서울특별시 구로구 구로동로 130-2,우체국,103617,주출입구 높이차이 제거,이용불편
3582,11018,구로4동 주민센터,37.49161289999999,126.889159,서울특별시 구로구 구로동로28길 94,지역자치센터,103620,주출입구 높이차이 제거,이용불편
3587,11019,구로경찰서,37.4948934,126.8867298,서울특별시 구로구 가마산로 235,경찰서,103623,주출입구 높이차이 제거,이용불편
3591,11021,구로구청,37.495472,126.88753600000001,서울특별시 구로구 가마산로 245,지역자치센터,103630,주출입구 높이차이 제거,이용가능
3596,11023,구산동주민센터,37.6117664,126.91038209999999,서울특별시 은평구 갈현로17길 10,지역자치센터,103638,주출입구 높이차이 제거,이용가능
3601,11024,구의제1동주민센터,37.54250070000001,127.08568740000001,서울특별시 광진구 광나루로36길 56,지역자치센터,103643,주출입구 높이차이 제거,이용불편
3604,11025,구의제2동주민센터,37.5472469,127.0899376,서울특별시 광진구 천호대로136길 55,지역자치센터,103646,주출입구 높이차이 제거,이용불편
3610,11038,군자동주민센터,37.555171,127.0759043,서울특별시 광진구 군자로  151,지역자치센터,103696,주출입구 높이차이 제거,이용불편
3614,11040,금호1가동주민센터,37.5548948,127.02166909999998,서울특별시 성동구 행당로 15,지역자치센터,103703,주출입구 높이차이 제거,이용가능
3619,11041,"금호2,3가동주민센터",37.553198200000004,127.0209188,서울특별시 성동구 무수막18길 1,지역자치센터,103708,주출입구 높이차이 제거,이용가능
3624,11044,금호치안센터,37.5449355,127.0221874,서울특별시 성동구 금호로13나길 13-7,경찰서,103720,주출입구 높이차이 제거,이용가능
3634,11049,길음지구대,37.6105727,127.0192675,서울특별시 성북구 삼양로13길 51,경찰서,103733,주출입구 높이차이 제거,이용불편
3637,11050,낙성대주민센터,37.4709624,126.921641,서울특별시 관악구 난곡로30길  40,지역자치센터,103737,주출입구 높이차이 제거,이용불편
3643,11051,낙성대지구대,37.478304200000004,126.9594672,서울특별시 관악구 낙성대로 2,경찰서,103742,주출입구 높이차이 제거,이용불편
3648,11053,남가좌1동주민센터,37.5706234,126.9155555,서울특별시 서대문구 수색로2길 48,지역자치센터,103747,주출입구 높이차이 제거,이용가능
3652,11054,남가좌2동주민센터,37.5784441,126.92388670000001,서울특별시 서대문구 증가로10길 28,지역자치센터,103750,주출입구 높이차이 제거,이용가능
3658,11055,남대문경찰서,37.5644653,127.0050513,서울특별시 중구 퇴계로 303-9,경찰서,103755,주출입구 높이차이 제거,이용불편
3660,11056,남대문파출소,37.565273,127.0133929,서울특별시 중구 퇴계로 375-1,경찰서,103759,주출입구 높이차이 제거,이용불편
3663,11057,남영동우체국,37.545083,126.972825,서울특별시 용산구 두텁바위로 6-1,우체국,103762,주출입구 높이차이 제거,이용가능
3667,11058,남영동주민센터,37.5457834,126.97484240000001,서울특별시 용산구 두텁바위로  25,지역자치센터,103766,주출입구 높이차이 제거,이용가능
3671,11059,남태령지구대,37.479538500000004,126.98213359999998,서울특별시 서초구 동작대로 34,경찰서,103770,주출입구 높이차이 제거,이용가능
3673,11060,내곡동주민센터,37.4619102,127.0511936,서울특별시 서초구 염곡말길 9,지역자치센터,103774,주출입구 높이차이 제거,이용가능
3678,11061,내발산문화센터,37.5575102,126.84320120000001,서울특별시 강서구 강서로52길  89,지역자치센터,103777,주출입구 높이차이 제거,이용불편
3681,11063,노들(본동)지구대,37.512397299999996,126.9536507,서울특별시 동작구 노량진로 248,경찰서,103785,주출입구 높이차이 제거,이용가능
3683,11064,노량진1동주민센터,37.512308000000004,126.94201299999999,서울특별시 동작구 장승배기로28길 30,지역자치센터,103788,주출입구 높이차이 제거,이용가능
3688,11065,노량진2동주민센터,37.508509000000004,126.937352,서울특별시 동작구 장승배기로19길 48,지역자치센터,103792,주출입구 높이차이 제거,이용가능
3694,11067,노량진우체국,37.5124571,126.95065020000001,서울특별시 동작구 노량진로 224,우체국,103798,주출입구 높이차이 제거,이용가능
3698,11069,노원역지구대,37.65502,127.06693500000002,서울특별시 노원구 노원로 431,경찰서,103806,주출입구 높이차이 제거,이용가능
3703,11072,능동주민센터,37.5537641,127.08056940000002,서울특별시 광진구 천호대로112길 55,지역자치센터,103816,주출입구 높이차이 제거,이용가능
3714,11076,답십리지구대,37.5735875,127.0533723,서울특별시 동대문구 답십리로41길 34,경찰서,103827,주출입구 높이차이 제거,이용가능
3718,11077,당고개파출소,37.663889399999995,127.0752308,서울특별시 노원구 상계로 221,경찰서,103831,주출입구 높이차이 제거,이용불편
3722,11078,당곡지구대,37.4859769,126.9343917,서울특별시 관악구 남부순환로191길 12,경찰서,103835,주출입구 높이차이 제거,이용불편
3723,11079,당산1동주민센터,37.5249643,126.897443,서울특별시 영등포구 양산로23길  11,지역자치센터,103838,주출입구 높이차이 제거,이용가능
3728,11080,당산2동주민센터,37.5347091,126.90210590000001,서울특별시 영등포구 당산로 235,지역자치센터,103841,주출입구 높이차이 제거,이용가능
3732,11081,당산우체국,37.5236893,126.8964491,서울특별시 영등포구 당산로 102,우체국,103845,주출입구 높이차이 제거,이용불편
3736,11082,당현지구대,37.6420356,127.06835929999998,서울특별시 노원구 노원로17길 64,경찰서,103849,주출입구 높이차이 제거,이용불편
3739,11084,대림1동주민센터,37.4954685,126.905818,서울특별시 영등포구 디지털로 441,지역자치센터,103857,주출입구 높이차이 제거,이용불편
3743,11085,대림1동지구대,37.4922911,126.90875290000001,서울특별시 영등포구 시흥대로  681,경찰서,103861,주출입구 높이차이 제거,이용가능
3744,11086,대림2동주민센터,37.49615120000001,126.89962179999999,서울특별시 영등포구 대림로  170,지역자치센터,103864,주출입구 높이차이 제거,이용불편
3748,11087,대림3 파출소,37.4983286,126.89804509999999,서울특별시 영등포구 대림로 197,경찰서,103868,주출입구 높이차이 제거,이용불편
3753,11089,대림우체국,37.489697,126.904575,서울특별시 영등포구 대림로 85,우체국,103875,주출입구 높이차이 제거,이용가능
3754,11090,대림파출소,37.493443799999994,126.8987176,서울특별시 영등포구 대림로23길 16-1,경찰서,103878,주출입구 높이차이 제거,이용불편
3758,11091,대방(신대방2동)파출소,37.498917999999996,126.925852,서울특별시 동작구 여의대방로24길 106,경찰서,103881,주출입구 높이차이 제거,이용불편
3760,11092,대방동주민센터,37.508133,126.92635,서울특별시 동작구 여의대방로44길 20,지역자치센터,103884,주출입구 높이차이 제거,이용가능
3764,11093,대방지구대,37.48665220000001,126.9059495,서울특별시 동작구 신대방1다길 24,경찰서,103888,주출입구 높이차이 제거,이용가능
3772,11095,대조동 주민센터,37.614182,126.92083240000001,서울특별시 은평구 연서로20길 24-3,지역자치센터,103894,주출입구 높이차이 제거,이용가능
3777,11096,대조동우체국,37.61290200000001,126.9266998,서울특별시 은평구 통일로71길  20,우체국,103899,주출입구 높이차이 제거,이용가능
3780,11097,대학동주민센터,37.4881777,126.93280259999999,서울특별시 관악구 봉천로 279-8,지역자치센터,103903,주출입구 높이차이 제거,이용불편
3785,11098,대학로파출소,37.578621999999996,127.0060598,서울특별시 종로구 이화장2길 33,경찰서,103907,주출입구 높이차이 제거,이용가능
3792,11100,도림동주민센터,37.5094857,126.89598980000001,서울특별시 영등포구 도영로7길  10,지역자치센터,103914,주출입구 높이차이 제거,이용불편
3796,11101,도봉1동우체국,37.6822346,127.0454125,서울특별시 도봉구 도봉로  871,우체국,103919,주출입구 높이차이 제거,이용불편
3801,11102,도봉1동주민센터,37.6786805,127.04335859999999,서울특별시 도봉구 도봉로169나길   22,지역자치센터,103923,주출입구 높이차이 제거,이용불편
3804,11103,도봉1동치안센터,37.6774247,127.0438471,서울특별시 도봉구 도봉로169나길   49,경찰서,103926,주출입구 높이차이 제거,이용불편
3807,11104,도봉2동우체국,37.6750654,127.0471061,서울특별시 도봉구 마들로  727,우체국,103929,주출입구 높이차이 제거,이용불편
3810,11105,도봉2동파출소,37.684021200000004,127.04928659999999,서울특별시 도봉구 도봉로180나길 33,경찰서,103932,주출입구 높이차이 제거,이용불편
3815,11106,도봉2주민센터 <도봉서원복지관>,37.6696521,127.04655859999998,서울특별시 도봉구 마들로  668,지역자치센터,103935,주출입구 높이차이 제거,이용가능
3819,11107,도봉경찰서,37.65344870000001,127.052775,서울특별시 도봉구 노해로  403,경찰서,103940,주출입구 높이차이 제거,이용불편
3820,11108,도봉구청,37.6687169,127.04716100000002,서울특별시 도봉구 마들로  656,지역자치센터,103944,주출입구 높이차이 제거,이용가능
3826,11110,도화동주민센터,37.537589000000004,126.95021470000002,서울특별시 마포구 도화2길 77,지역자치센터,103952,주출입구 높이차이 제거,이용가능
3830,11113,독산1동주민센터,37.4702285,126.89704240000002,서울특별시 금천구 시흥대로123길 11,지역자치센터,103960,주출입구 높이차이 제거,이용불편
3833,11115,독산2동 주민센터,37.4661409,126.89977879999999,서울특별시 금천구 범안로 1240-7,지역자치센터,103967,주출입구 높이차이 제거,이용불편
3837,11116,독산3동 주민센터,37.4751889,126.90318090000001,서울특별시 금천구 독산로  317,지역자치센터,103971,주출입구 높이차이 제거,이용가능
3843,11117,독산4동청사,37.4675814,126.9021855,서울특별시 금천구 독산로 232,경찰서,103976,주출입구 높이차이 제거,이용불편
3853,11120,돈암우체국,37.5901987,127.0157085,서울특별시 성북구 보문로  178,우체국,103987,주출입구 높이차이 제거,이용불편
3858,11122,동구로우체국,37.4961805,126.89210929999999,서울특별시 구로구 구로중앙로18길 57,우체국,103992,주출입구 높이차이 제거,이용가능
3862,11123,동대문경찰서,37.585100399999995,127.04576429999999,서울특별시 동대문구 약령시로21길  29,경찰서,103994,주출입구 높이차이 제거,이용가능
3865,11125,동대문우체국,37.57496810000001,127.0239418,서울특별시 동대문구 천호대로 4,우체국,104004,주출입구 높이차이 제거,이용가능
3869,11128,동선동주민센터,37.5939846,127.0204203,서울특별시 성북구 동소문로26길  27,지역자치센터,104015,주출입구 높이차이 제거,이용불편
3876,11130,동작경찰서,37.5131459,126.94285959999999,서울특별시 동작구 노량진로 148,경찰서,104020,주출입구 높이차이 제거,이용가능
3881,11131,동작구청,37.51245,126.9395,서울특별시 동작구 장승배기로 161,지역자치센터,104025,주출입구 높이차이 제거,이용가능
3885,11132,동작우체국,37.4980518,126.9243757,서울특별시 동작구 여의대방로22길 77,우체국,104030,주출입구 높이차이 제거,이용가능
3890,11133,두산아파트(면목7동우체국),37.5801261,127.08299869999999,서울특별시 중랑구 면목로37길 57,우체국,104034,주출입구 높이차이 제거,이용가능
3897,11137,등촌1동주민센터,37.5558357,126.8589243,서울특별시 강서구 공항대로53가길  55,지역자치센터,104045,주출입구 높이차이 제거,이용가능
3901,11138,등촌1동치안센터,37.5525012,126.8623175,서울특별시 강서구 공항대로  501,경찰서,104049,주출입구 높이차이 제거,이용불편
3906,11139,등촌2동주민센터,37.5426586,126.86250090000001,서울특별시 강서구 등촌로  143,지역자치센터,104052,주출입구 높이차이 제거,이용가능
3910,11140,등촌2파출소,37.5448208,126.86189040000001,서울특별시 강서구 등촌로  167,경찰서,104056,주출입구 높이차이 제거,이용가능
3913,11141,등촌3동주민센터,37.558914,126.8479146,서울특별시 강서구 화곡로63길  96,지역자치센터,104059,주출입구 높이차이 제거,이용가능
3917,11142,등촌동우체국,37.558862100000006,126.8482017,서울특별시 강서구 화곡로63길 90,우체국,104064,주출입구 높이차이 제거,이용가능
3922,11143,뚝섬우체국,37.5414253,127.0496213,서울특별시 성동구 뚝섬로3길  14,우체국,104068,주출입구 높이차이 제거,이용불편
3925,11144,마들파출소,37.6646152,127.0636226,서울특별시 노원구 한글비석로 489,경찰서,104072,주출입구 높이차이 제거,이용가능
3930,11145,마장동주민센터,37.5663274,127.04542990000002,서울특별시 성동구 마장로42길   11,지역자치센터,104076,주출입구 높이차이 제거,이용불편
3933,11146,마장우체국,37.5709095,127.03821119999999,서울특별시 성동구 고산자로 352,우체국,104079,주출입구 높이차이 제거,이용가능
3934,11147,마장치안센터,37.569146999999994,127.0375717,서울특별시 성동구 고산자로 332,경찰서,104082,주출입구 높이차이 제거,이용불편
3939,11148,마천1동주민센터,37.4930604,127.15267890000001,서울특별시 송파구 마천로 343,지역자치센터,104085,주출입구 높이차이 제거,이용가능
3943,11149,마천2동주민센터,37.49685510000001,127.14855530000001,서울특별시 송파구 마천로  287,지역자치센터,104089,주출입구 높이차이 제거,이용가능
3947,11151,마천지구대,37.497041700000004,127.1482294,서울특별시 송파구 마천로41길 8,경찰서,104096,주출입구 높이차이 제거,이용가능
3950,11152,마포경찰서,37.5510175,126.9539447,서울특별시 마포구 마포대로  183,경찰서,104100,주출입구 높이차이 제거,이용불편
3955,11154,망우1동치안센터,37.601482,127.10636299999999,서울특별시 중랑구 망우로77길 12,경찰서,104106,주출입구 높이차이 제거,이용가능
3957,11155,망우3동주민센터,37.592382,127.0981757,서울특별시 중랑구 용마산로 461,지역자치센터,104110,주출입구 높이차이 제거,이용가능
3962,11156,망우3치안센터,37.5946899,127.1017918,서울특별시 중랑구 용마공원로5길 13,경찰서,104115,주출입구 높이차이 제거,이용가능
3967,11157,망우본동우체국,37.6004186,127.1016678,서울특별시 중랑구 망우로 447,우체국,104119,주출입구 높이차이 제거,이용가능
3972,11159,망우지구대,37.5991108,127.0956923,서울특별시 중랑구 망우로 391,경찰서,104128,주출입구 높이차이 제거,이용가능
3976,11160,망원1동주민센터,37.555583899999995,126.905612,서울특별시 마포구 포은로6길  10,지역자치센터,104132,주출입구 높이차이 제거,이용가능
3980,11161,망원2동주민센터,37.5603124,126.9023164,서울특별시 마포구 방울내로7길 11,지역자치센터,104135,주출입구 높이차이 제거,이용가능
3981,11162,망원2동치안센터,37.56162379999999,126.903745,서울특별시 마포구 월드컵로31길 18,경찰서,104138,주출입구 높이차이 제거,이용불편
3983,11163,망원우체국,37.5581802,126.90784209999998,서울특별시 마포구 월드컵로  111,우체국,104139,주출입구 높이차이 제거,이용불편
3986,11164,망원지구대,37.55434260000001,126.9027422,서울특별시 마포구 망원로2길  63,경찰서,104142,주출입구 높이차이 제거,이용불편
3989,11165,먹골순찰지구대,37.6146276,127.0815888,서울특별시 중랑구 숙선옹주로7길 1,경찰서,104145,주출입구 높이차이 제거,이용가능
3994,11167,면목2동주민센터,37.589799,127.07905,서울특별시 중랑구 동일로101길 20-15,지역자치센터,104151,주출입구 높이차이 제거,이용가능
4002,11169,면목4동주민센터,37.574673600000004,127.08557749999999,서울특별시 중랑구 면목로 246,지역자치센터,104158,주출입구 높이차이 제거,이용가능
4007,11170,면목4치안센터,37.574374,127.08059579999998,서울특별시 중랑구 답십리로75길 61,경찰서,104163,주출입구 높이차이 제거,이용가능
4011,11172,면목7동 주민센터,37.579012299999995,127.08698590000002,서울특별시 중랑구 면목로 298,지역자치센터,104168,주출입구 높이차이 제거,이용가능
4017,11173,면목7치안센터,37.577373,127.0857248,서울특별시 중랑구 면목로 275,경찰서,104173,주출입구 높이차이 제거,이용가능
4020,11174,면목동우체국,37.5826133,127.0888332,서울특별시 중랑구 면목로 344,우체국,104176,주출입구 높이차이 제거,이용가능
4024,11175,면목삼팔파출소,37.5832217,127.0841713,서울특별시 중랑구 사가정로41길 45,경찰서,104180,주출입구 높이차이 제거,이용가능
4026,11176,면목지구대,37.5882009,127.09390379999999,서울특별시 중랑구 상봉로 27,경찰서,104183,주출입구 높이차이 제거,이용가능
4033,11178,명동파출소,37.559388299999995,126.97618600000001,서울특별시 중구 소월로 3,경찰서,104189,주출입구 높이차이 제거,이용불편
4037,11180,명일2동 주민센터,37.54619260000001,127.15194509999999,서울특별시 강동구 상암로 264,지역자치센터,104193,주출입구 높이차이 제거,이용불편
4041,11183,목1동주민센터,37.5303703,126.8712443,서울특별시 양천구 목동서로 192,지역자치센터,104204,주출입구 높이차이 제거,이용불편
4043,11184,목2동주민센터,37.5461527,126.8717168,서울특별시 양천구 목동중앙본로 120,지역자치센터,104207,주출입구 높이차이 제거,이용가능
4047,11185,목3동주민센터,37.5447468,126.8644551,서울특별시 양천구 목동중앙남로16나길 55,지역자치센터,104210,주출입구 높이차이 제거,이용가능
4053,11187,목5동주민센터,37.535196899999995,126.8786594,서울특별시 양천구 목동동로 375,지역자치센터,104216,주출입구 높이차이 제거,이용불편
4056,11188,무악동 주민센터,37.57598970000001,126.958192,서울특별시 종로구 통일로14길 36,지역자치센터,104219,주출입구 높이차이 제거,이용불편
4059,11189,묵1동주민센터,37.6124237,127.0784986,서울특별시 중랑구 공릉로2가길 5,지역자치센터,104223,주출입구 높이차이 제거,이용가능
4065,11190,묵2동주민센터,37.6096031,127.07602959999998,서울특별시 중랑구 동일로157길 29,지역자치센터,104228,주출입구 높이차이 제거,이용가능
4070,11191,묵동우체국,37.6103715,127.07745520000002,서울특별시 중랑구 동일로 895,우체국,104233,주출입구 높이차이 제거,이용가능
4072,11192,문래동주민센터,37.51713400000001,126.89953670000001,서울특별시 영등포구 문래로28길  15,지역자치센터,104236,주출입구 높이차이 제거,이용불편
4078,11193,문래지구대,37.5135815,126.89766259999999,서울특별시 영등포구 경인로  759,경찰서,104241,주출입구 높이차이 제거,이용가능
4082,11194,문정1동주민센터,37.4900826,127.12419779999999,서울특별시 송파구 동남로  116,지역자치센터,104245,주출입구 높이차이 제거,이용가능
4084,11195,문정2동주민센터,37.4898719,127.1108425,서울특별시 송파구 중대로 16,지역자치센터,104249,주출입구 높이차이 제거,이용가능
4090,11197,미성동 주민센터,37.4761906,126.91556329999999,서울특별시 관악구 난곡로 249,지역자치센터,104258,주출입구 높이차이 제거,이용불편
4093,11200,미아지구대,37.6201542,127.02828190000001,서울특별시 강북구 도봉로 127,경찰서,104271,주출입구 높이차이 제거,이용가능
4098,11201,반포1동주민센터,37.50509270000001,127.01337759999998,서울특별시 서초구 사평대로 273,지역자치센터,104274,주출입구 높이차이 제거,이용가능
4101,11202,반포2동주민센터,37.5045816,126.9944824,서울특별시 서초구 신반포로15길 16,지역자치센터,104279,주출입구 높이차이 제거,이용가능
4104,11203,반포3동주민센터,37.511831799999996,127.00533259999999,서울특별시 서초구 신반포로23길 78,지역자치센터,104282,주출입구 높이차이 제거,이용불편
4111,11205,반포본동주민센터,37.5004724,126.9860783,서울특별시 서초구 신반포로  10,지역자치센터,104290,주출입구 높이차이 제거,이용가능
4114,11206,반포지구대,37.504917799999994,127.00321310000001,서울특별시 서초구 신반포로 176,경찰서,104293,주출입구 높이차이 제거,이용불편
4119,11207,발산1동주민센터,37.5531308,126.83318999999999,서울특별시 강서구 강서로47길  54,지역자치센터,104297,주출입구 높이차이 제거,이용가능
4124,11208,발산동우체국,37.5510853,126.83604070000001,서울특별시 강서구 강서로  283,우체국,104302,주출입구 높이차이 제거,이용가능
4127,11209,발산파출소,37.5494154,126.8260298,서울특별시 강서구 수명로2길  46,경찰서,104305,주출입구 높이차이 제거,이용불편
4130,11210,방배2동주민센터,37.4797439,126.9855106,서울특별시 서초구 청두곶길 36,지역자치센터,104309,주출입구 높이차이 제거,이용가능
4135,11211,방배3동주민센터,37.480331899999996,126.9990252,서울특별시 서초구 방배로10길  10-20,지역자치센터,104313,주출입구 높이차이 제거,이용불편
4138,11212,방배4동주민센터,37.4896038,126.99135829999999,서울특별시 서초구 방배로27길 13,지역자치센터,104316,주출입구 높이차이 제거,이용불편
4142,11213,방배경찰서,37.4816273,126.9830176,서울특별시 서초구 방배천로 54,경찰서,104319,주출입구 높이차이 제거,이용불편
4144,11214,방배본동주민센터,37.4941464,126.98881850000001,서울특별시 서초구 동광로19길  38,지역자치센터,104323,주출입구 높이차이 제거,이용가능
4149,11215,방배우체국,37.4943821,126.98977169999999,서울특별시 서초구 방배로 238,우체국,104327,주출입구 높이차이 제거,이용불편
4153,11216,방범CCTV관제센터,37.589683,127.07625049999999,서울특별시 중랑구 봉우재로6길 5,지역자치센터,104331,주출입구 높이차이 제거,이용가능
4158,11217,방이1동주민센터,37.5109839,127.12393130000001,서울특별시 송파구 위례성대로16길 22,지역자치센터,104335,주출입구 높이차이 제거,이용가능
4160,11219,방이우체국,37.509006899999996,127.1151531,서울특별시 송파구 오금로  187,우체국,104342,주출입구 높이차이 제거,이용가능
4165,11220,방이지구대,37.5102477,127.1257635,서울특별시 송파구 양재대로71길 5-6,경찰서,104346,주출입구 높이차이 제거,이용가능
4168,11221,방학1동주민센터,37.664237299999996,127.0406781,서울특별시 도봉구 방학로2길  27,지역자치센터,104349,주출입구 높이차이 제거,이용불편
4171,11222,방학2동주민센터,37.6682223,127.035068,서울특별시 도봉구 시루봉로   226,지역자치센터,104353,주출입구 높이차이 제거,이용가능
4175,11223,방학2동치안센터,37.6628825,127.0306834,서울특별시 도봉구 방학로12길  18,경찰서,104358,주출입구 높이차이 제거,이용불편
4180,11224,방학3동주민센터,37.6591886,127.0280351,서울특별시 도봉구 시루봉로   94,지역자치센터,104361,주출입구 높이차이 제거,이용불편
4185,11225,방학우체국,37.6656498,127.0432731,서울특별시 도봉구 도봉로   686,우체국,104366,주출입구 높이차이 제거,이용불편
4188,11226,방학파출소,37.6645052,127.04004099999999,서울특별시 도봉구 도봉로145길  45,경찰서,104369,주출입구 높이차이 제거,이용가능
4194,11227,방화1동주민센터,37.5715645,126.8122172,서울특별시 강서구 방화동로  124-1,지역자치센터,104373,주출입구 높이차이 제거,이용가능
4197,11228,방화2동주민센터,37.5666997,126.80675490000002,서울특별시 강서구 개화동로23길 20,지역자치센터,104378,주출입구 높이차이 제거,이용불편
4201,11229,방화3동주민센터,37.5788136,126.8136807,서울특별시 강서구 금낭화로24길  5,지역자치센터,104382,주출입구 높이차이 제거,이용불편
4204,11230,방화3동파출소,37.5798171,126.8147229,서울특별시 강서구 금낭화로26길 16,경찰서,104386,주출입구 높이차이 제거,이용불편
4206,11231,방화동우체국,37.579833799999996,126.8150178,서울특별시 강서구 금낭화로26길  22,우체국,104389,주출입구 높이차이 제거,이용가능
4211,11232,번1동주민센터,37.6378943,127.0288824,서울특별시 강북구 덕릉로41길 74,지역자치센터,104392,주출입구 높이차이 제거,이용가능
4215,11233,번1동지구대,37.6359725,127.03260390000001,서울특별시 강북구 한천로 969,경찰서,104396,주출입구 높이차이 제거,이용불편
4216,11234,번2동우체국,37.6317612,127.0378403,서울특별시 강북구 오현로35길 65,우체국,104399,주출입구 높이차이 제거,이용가능
4221,11235,번2동주민센터,37.6323588,127.0387953,서울특별시 강북구 한천로 897,지역자치센터,104402,주출입구 높이차이 제거,이용가능
4224,11236,번3동 주민센터,37.625873999999996,127.04665,서울특별시 강북구 한천로105길 21,지역자치센터,104406,주출입구 높이차이 제거,이용가능
4229,11237,번3동우체국,37.6257351,127.0462507,서울특별시 강북구 한천로105길 27,우체국,104410,주출입구 높이차이 제거,이용가능
4236,11239,보건복지부,37.578028100000004,126.9876625,서울특별시 종로구 율곡로 75,보건소,104416,주출입구 높이차이 제거,이용가능
4240,11241,보광동주민센터,37.5263148,127.000175,서울특별시 용산구 장문로  95,지역자치센터,104422,주출입구 높이차이 제거,이용불편
4247,11243,보문동주민센터,37.5803796,127.02281380000001,서울특별시 성북구 안암로3길  35,지역자치센터,104428,주출입구 높이차이 제거,이용가능
4252,11245,봉화지구대,37.6147968,127.0955418,서울특별시 중랑구 신내로 177,경찰서,104433,주출입구 높이차이 제거,이용가능
4256,11246,부암동주민센터,37.5924786,126.96410719999999,서울특별시 종로구 창의문로 145,지역자치센터,104438,주출입구 높이차이 제거,이용불편
4261,11247,북가좌1동주민센터,37.5773782,126.9084893,서울특별시 서대문구 거북골로19길 21,지역자치센터,104442,주출입구 높이차이 제거,이용가능
4266,11248,북가좌2동주민센터,37.5815025,126.91118429999999,서울특별시 서대문구 응암로1길 10,지역자치센터,104447,주출입구 높이차이 제거,이용가능
4269,11249,북가좌2치안센터,37.5830078,126.91289990000001,서울특별시 서대문구 증가로  244,경찰서,104450,주출입구 높이차이 제거,이용가능
4274,11250,북부고용지원센터,37.6534456,127.05821440000001,서울특별시 노원구 노해로 450,지역자치센터,104453,주출입구 높이차이 제거,이용불편
4276,11251,불광1동주민센터,37.610378600000004,126.9321076,서울특별시 은평구 진흥로15길 10,지역자치센터,104457,주출입구 높이차이 제거,이용가능
4281,11252,불광2동주민센터,37.6265021,126.9272892,서울특별시 은평구 연서로41길  16,지역자치센터,104462,주출입구 높이차이 제거,이용가능
4284,11253,불암파출소,37.6524484,127.07734750000002,서울특별시 노원구 한글비석로 277,경찰서,104465,주출입구 높이차이 제거,이용불편
4291,11255,사당1동주민센터,37.4830915,126.9787808,서울특별시 동작구 동작대로17길 28,지역자치센터,104472,주출입구 높이차이 제거,이용가능
4295,11256,사당2동주민센터,37.488383299999995,126.97759950000001,서울특별시 동작구 동작대로29길 63-26,지역자치센터,104476,주출입구 높이차이 제거,이용가능
4299,11257,사당3동남성지구대,37.4836009,126.97465090000001,서울특별시 동작구 사당로17길 4,경찰서,104480,주출입구 높이차이 제거,이용가능
4301,11258,사당3동주민센터,37.4866922,126.9720425,서울특별시 동작구 사당로17길 86,지역자치센터,104483,주출입구 높이차이 제거,이용가능
4306,11259,사당4동 파출소,37.4809702,126.9713949,서울특별시 동작구 사당로16아길 10,경찰서,104487,주출입구 높이차이 제거,이용가능
4309,11260,사당4동주민센터,37.4809888,126.97167040000001,서울특별시 동작구 사당로16아길 6,지역자치센터,104490,주출입구 높이차이 제거,이용가능
4313,11261,사당5동주민센터,37.4856704,126.96700359999998,서울특별시 동작구 사당로2가길 219,지역자치센터,104494,주출입구 높이차이 제거,이용불편
4318,11263,사당동우체국,37.4834015,126.9814144,서울특별시 동작구 동작대로 75,우체국,104500,주출입구 높이차이 제거,이용가능
4323,11264,사당동지구대,37.480561200000004,126.9795437,서울특별시 동작구 동작대로9길 35,경찰서,104504,주출입구 높이차이 제거,이용가능
4326,11265,사직동주민센터,37.576196,126.96883970000002,서울특별시 종로구 사직로9길 1,지역자치센터,104507,주출입구 높이차이 제거,이용가능
4330,11266,사직동치안센터,37.576333,126.96858799999998,서울특별시 종로구 사직로9길 5,경찰서,104510,주출입구 높이차이 제거,이용가능
4332,11267,산업연구원우체국,37.5909128,127.0451175,서울특별시 동대문구 회기로 66,우체국,104513,주출입구 높이차이 제거,이용가능
4339,11270,삼성2 지구대,37.5112974,127.0481018,서울특별시 강남구 봉은사로  440,경찰서,104523,주출입구 높이차이 제거,이용가능
4342,11271,삼성동 우체국,37.5095385,127.04442490000001,서울특별시 강남구 선릉로  572,우체국,104526,주출입구 높이차이 제거,이용불편
4345,11272,삼성동 주민센터,37.470124299999995,126.9329682,서울특별시 관악구 호암로  589,지역자치센터,104529,주출입구 높이차이 제거,이용불편
4348,11273,삼양동우체국,37.62388350000001,127.018397,서울특별시 강북구 삼양로 229,우체국,104533,주출입구 높이차이 제거,이용불편
4353,11274,삼양동주민센터,37.627342299999995,127.0183885,서울특별시 강북구 삼양로 268,지역자치센터,104537,주출입구 높이차이 제거,이용가능
4358,11275,삼전동우체국,37.5023384,127.09480459999999,서울특별시 송파구 백제고분로 256,우체국,104542,주출입구 높이차이 제거,이용가능
4361,11276,삼전동주민센터,37.502741,127.09254979999999,서울특별시 송파구 백제고분로 236,지역자치센터,104545,주출입구 높이차이 제거,이용가능
4363,11277,삼청동우체국,37.586936,126.98501409999999,서울특별시 종로구 북촌로 112,우체국,104548,주출입구 높이차이 제거,이용불편
4368,11278,삼청동주민센터,37.58501029999999,126.981857,서울특별시 종로구 삼청로 107,지역자치센터,104552,주출입구 높이차이 제거,이용불편
4372,11279,삼청파출소,37.5814232,126.9811351,서울특별시 종로구 삼청로 66,경찰서,104556,주출입구 높이차이 제거,이용불편
4377,11280,상계14동우체국,37.66093970000001,127.062634,서울특별시 노원구 노원로 510,우체국,104561,주출입구 높이차이 제거,이용불편
4379,11281,상계14동주민센터,37.6612862,127.0603049,서울특별시 노원구 노원로 530,지역자치센터,104565,주출입구 높이차이 제거,이용불편
4386,11283,상계1동주민센터,37.679914200000006,127.05494990000001,서울특별시 노원구 동일로 1697,지역자치센터,104570,주출입구 높이차이 제거,이용불편
4391,11284,상계1동치안센터,37.6796873,127.0550396,서울특별시 노원구 동일로 1693,경찰서,104575,주출입구 높이차이 제거,이용불편
4394,11287,상계3동우체국,37.666304,127.0770649,서울특별시 노원구 덕릉로113길 18,우체국,104582,주출입구 높이차이 제거,이용불편
4399,11288,상계4동치안센터,37.671480700000004,127.0778538,서울특별시 노원구 상계로35길 29,경찰서,104585,주출입구 높이차이 제거,이용불편
4407,11291,상계6동우체국,37.6534271,127.05794750000001,서울특별시 노원구 노해로 448,우체국,104593,주출입구 높이차이 제거,이용불편
4410,11292,상계8동주민센터,37.6667588,127.051552,서울특별시 노원구 동일로227길 97,지역자치센터,104596,주출입구 높이차이 제거,이용불편
4415,11294,상계동주민센터,37.6645383,127.0638322,서울특별시 노원구 한글비석로 487,지역자치센터,104601,주출입구 높이차이 제거,이용불편
4418,11295,상도1동주민센터,37.5023146,126.9516271,서울특별시 동작구 상도로47마길 4,지역자치센터,104604,주출입구 높이차이 제거,이용가능
4423,11296,상도2동주민센터,37.5054831,126.9423083,서울특별시 동작구 상도로 211,지역자치센터,104609,주출입구 높이차이 제거,이용가능
4429,11297,상도3동주민센터,37.4991218,126.93140659999999,서울특별시 동작구 성대로2길 11,지역자치센터,104613,주출입구 높이차이 제거,이용가능
4432,11298,상도3동파출소,37.499909499999994,126.93037450000001,서울특별시 동작구 상도로 87,경찰서,104618,주출입구 높이차이 제거,이용가능
4435,11299,상도4동주민센터,37.5006061,126.93778600000002,서울특별시 동작구 성대로29길 53,지역자치센터,104621,주출입구 높이차이 제거,이용가능
4439,11301,상도동우체국,37.505008000000004,126.94485790000002,서울특별시 동작구 상도로 236,우체국,104627,주출입구 높이차이 제거,이용가능
4445,11302,상도지구대,37.504166299999994,126.9391375,서울특별시 동작구 장승배기로 73,경찰서,104631,주출입구 높이차이 제거,이용가능
4447,11303,상봉1동주민센터,37.5998528,127.0871851,서울특별시 중랑구 상봉중앙로1길 6,지역자치센터,104634,주출입구 높이차이 제거,이용가능
4453,11304,상봉2동주민센터,37.59242620000001,127.0832793,서울특별시 중랑구 봉우재로 93-5,지역자치센터,104639,주출입구 높이차이 제거,이용가능
4457,11306,상봉지구대,37.59133410000001,127.07286359999999,서울특별시 중랑구 중랑천로 69,경찰서,104648,주출입구 높이차이 제거,이용가능
4462,11307,상암동주민센터,37.578319,126.89468190000001,서울특별시 마포구 매봉산로2길 16,지역자치센터,104652,주출입구 높이차이 제거,이용가능
4466,11308,상암파출소(상암치안센터),37.5782843,126.8938614,서울특별시 마포구 매봉산로 76,경찰서,104656,주출입구 높이차이 제거,이용가능
4468,11309,상일동 우체국,37.5545586,127.1719341,서울특별시 강동구 상일로,우체국,104660,주출입구 높이차이 제거,이용불편
4473,11310,상일동 주민센터,37.55453970000001,127.1343554,서울특별시 강동구 고덕로84길 111,지역자치센터,104664,주출입구 높이차이 제거,이용불편
4477,11312,서강지구대,37.5473186,126.9292892,서울특별시 마포구 독막로22길 8,경찰서,104670,주출입구 높이차이 제거,이용가능
4481,11313,서교동주민센터,37.5562044,126.9199436,서울특별시 마포구 월드컵북로  15,지역자치센터,104673,주출입구 높이차이 제거,이용불편
4482,11314,서교우체국,37.550367,126.9156581,서울특별시 마포구 양화로  62,우체국,104676,주출입구 높이차이 제거,이용불편
4485,11315,서대문경찰서,37.5649018,126.9667851,서울특별시 서대문구 통일로  113,경찰서,104680,주출입구 높이차이 제거,이용가능
4493,11317,서대문구청,37.579225,126.9368,서울특별시 서대문구 연희로 248,지역자치센터,104686,주출입구 높이차이 제거,이용가능
4497,11318,서대문보건소(서대문구청 별관),37.578629,126.93630859999999,서울특별시 서대문구 연희로 242,보건소,104691,주출입구 높이차이 제거,이용가능
4503,11320,서림동주민센터,37.4750216,126.93502179999999,서울특별시 관악구 신림로29길 6,지역자치센터,104699,주출입구 높이차이 제거,이용불편
4505,11324,서울과학기술대학우체국,37.6330789,127.07679509999998,서울특별시 노원구 공릉로 232,우체국,104712,주출입구 높이차이 제거,이용불편
4510,11325,서울광진경찰서 중곡2지구대,37.563719799999994,127.0827888,서울특별시 광진구 능동로 385,경찰서,104716,주출입구 높이차이 제거,이용가능
4513,11326,서울금천우체국,37.470121899999995,126.89848190000001,서울특별시 금천구 시흥대로 410,우체국,104719,주출입구 높이차이 제거,이용불편
4517,11332,서울서부지법우체국,37.54899520000001,126.9554886,서울특별시 마포구 마포대로 174,우체국,104742,주출입구 높이차이 제거,이용불편
4519,11337,서울여대우체국(누리관1층),37.628032899999994,127.09042350000001,서울특별시 노원구 화랑로 621,우체국,104763,주출입구 높이차이 제거,이용불편
4522,11338,서울중곡동우체국,37.5615297,127.0832682,서울특별시 광진구 긴고랑로 68,우체국,104767,주출입구 높이차이 제거,이용가능
4528,11339,서울중화동우체국,37.6005284,127.08002920000001,서울특별시 중랑구 동일로 784,우체국,104771,주출입구 높이차이 제거,이용가능
4532,11342,서원동주민센터,37.48721670000001,126.956608,서울특별시 관악구 관악로 255-7,지역자치센터,104784,주출입구 높이차이 제거,이용불편
4538,11344,서초1동주민센터,37.488812599999996,127.0190463,서울특별시 서초구 사임당로18길  18,지역자치센터,104790,주출입구 높이차이 제거,이용가능
4543,11346,서초3파출소,37.492002299999996,127.0108098,서울특별시 서초구 반포대로30길 40,경찰서,104797,주출입구 높이차이 제거,이용가능
4549,11347,서초4동주민센터,37.5026745,127.02218429999999,서울특별시 서초구 서운로26길 3,지역자치센터,104801,주출입구 높이차이 제거,이용가능
4553,11348,서초동우체국,37.4890715,127.00865459999999,서울특별시 서초구 반포대로 99,우체국,104805,주출입구 높이차이 제거,이용가능
4557,11349,석관동주민센터,37.6129857,127.06143429999999,서울특별시 성북구 화랑로 296,지역자치센터,104809,주출입구 높이차이 제거,이용가능
4560,11350,석관우체국,37.6087688,127.0524638,서울특별시 성북구 화랑로 203,우체국,104813,주출입구 높이차이 제거,이용불편
4564,11351,석관지구대,37.608988599999996,127.05523159999998,서울특별시 성북구 화랑로32가길 20,경찰서,104816,주출입구 높이차이 제거,이용가능
4568,11352,성내 우체국,37.5289339,127.124377,서울특별시 강동구 성내로 38,우체국,104820,주출입구 높이차이 제거,이용불편
4569,11353,성내2 치안센터,37.535009,127.1246353,서울특별시 강동구 천호옛길 68-1,경찰서,104823,주출입구 높이차이 제거,이용가능
4579,11360,성동우체국,37.5608698,127.034709,서울특별시 성동구 왕십리로  303,우체국,104846,주출입구 높이차이 제거,이용가능
4582,11361,성북구청,37.5894674,127.0168503,서울특별시 성북구 보문로  168,지역자치센터,104849,주출입구 높이차이 제거,이용가능
4593,11365,성북파출소,37.59327879999999,126.99847549999998,서울특별시 성북구 성북로 94,경찰서,104861,주출입구 높이차이 제거,이용불편
4599,11368,성산2동우체국,37.56956029999999,126.90352469999999,서울특별시 마포구 월드컵북로 227,우체국,104868,주출입구 높이차이 제거,이용가능
4603,11369,성산2동주민센터,37.568619399999996,126.9090202,서울특별시 마포구 월드컵북로30길 22,지역자치센터,104871,주출입구 높이차이 제거,이용가능
4609,11371,성수1가1동주민센터,37.54190300000001,127.04967279999998,서울특별시 성동구 뚝섬로3길 18,지역자치센터,104877,주출입구 높이차이 제거,이용가능
4614,11372,성수1가2동주민센터,37.5467331,127.04425900000001,서울특별시 성동구 왕십리로5길   3,지역자치센터,104882,주출입구 높이차이 제거,이용가능
4617,11373,성수1가치안센터,37.5396693,127.0512257,서울특별시 성동구 뚝섬로 364-1,경찰서,104886,주출입구 높이차이 제거,이용가능
4621,11374,성수2가1동주민센터,37.539545600000004,127.0540459,서울특별시 성동구 뚝섬로  385-19,지역자치센터,104889,주출입구 높이차이 제거,이용가능
4626,11375,성수2가3동주민센터,37.54823,127.0552502,서울특별시 성동구 광나루로2길  35,지역자치센터,104894,주출입구 높이차이 제거,이용가능
4631,11378,성수서울숲지구대,37.5380685,127.05227450000001,서울특별시 성동구 성덕정길 77-2,경찰서,104905,주출입구 높이차이 제거,이용가능
4634,11379,성현동 주민센터,37.48953529999999,126.9481613,서울특별시 관악구 구암길 38,지역자치센터,104908,주출입구 높이차이 제거,이용가능
4639,11380,세검정 우체국,37.6014191,126.9612784,서울특별시 종로구 세검정로 258,우체국,104913,주출입구 높이차이 제거,이용가능
4642,11381,솔샘지구대,37.61631060000001,127.03040759999999,서울특별시 강북구 오현로 4,경찰서,104916,주출입구 높이차이 제거,이용가능
4645,11382,송정동주민센터,37.5545203,127.0695585,서울특별시 성동구 동일로43길   13,지역자치센터,104919,주출입구 높이차이 제거,이용가능
4650,11383,송중동주민센터,37.616129799999996,127.0337939,서울특별시 강북구 오패산로 162,지역자치센터,104923,주출입구 높이차이 제거,이용불편
4653,11384,송천동 우체국,37.6155006,127.0295904,서울특별시 강북구 도봉로 71,우체국,104927,주출입구 높이차이 제거,이용불편
4657,11386,송파2동주민센터,37.502241999999995,127.1167017,서울특별시 송파구 송이로 32,지역자치센터,104935,주출입구 높이차이 제거,이용불편
4661,11387,송파경찰서,37.50185310000001,127.1269643,서울특별시 송파구 중대로 221,경찰서,104939,주출입구 높이차이 제거,이용가능
